"","Organization.Name","Address","City","State","Postcode","Main.Phone..","Discipline","Council.District","Community.Board","Borough","Latitude","Longitude","Census.Tract","BIN","BBL","NTA"
"1","13 Playwrights, Inc.","195 Willoughby Avenue, #402","Brooklyn","NY","11205","(917) 886-6545","Theater","Brooklyn Council District #39","Brooklyn Community Board #6","Brooklyn",40.692048,-73.964181,193,3054896,3019050080,"Clinton Hill"
"2","20/20 Vision for Schools","8225 5th Avenue #323","Brooklyn","NY","11209","(347) 921-4426","Visual Arts","Brooklyn Council District #43","Brooklyn Community Board #10","Brooklyn",40.624082,-74.024838,142,3152153,3060090001,"Bay Ridge"
"3","42nd Street Workshop, Inc.","312 West 36th Street, 4th Floor","New York","NY","10018","(212) 695-4173","Theater","Manhattan Council District #3","Manhattan Community Board #4","Manhattan",40.753755,-73.9932,111,1080495,1007590049,"Hudson Yards-Chelsea-Flatiron-Union Square"
"4","52nd Street Project, Inc.","789 Tenth Avenue","New York","NY","10019","(212) 333-5252","Theater","Manhattan Council District #3","Manhattan Community Board #4","Manhattan",40.766661,-73.990365,135,1087777,1010817502,"Clinton"
"5","A Blade of Grass Fund","81 Prospect Street","Brooklyn","NY","11201","(646) 358-1164","Visual Arts","Manhattan Council District #3","Manhattan Community Board #5","Brooklyn",40.700663,-73.987536,21,3000163,3000640025,"DUMBO-Vinegar Hill-Downtown Brooklyn-Boerum Hill"
"6","AAMC Foundation","174 East 80th Street","New York","NY","10075","(646) 405-8057","Visual Arts","Manhattan Council District #5","Manhattan Community Board #8","Manhattan",40.77528,-73.957562,140,1047499,1015080142,"Upper East Side-Carnegie Hill"
"7","ABC No Rio","107 Suffolk Street, #305","New York","NY","10002","(212) 254-3697","Visual Arts","Manhattan Council District #1","Manhattan Community Board #3","Manhattan",40.718943,-73.986122,1402,1004301,1003530054,"Lower East Side"
"8","ACMP Associated Chamber Music Players, Inc.","1133 Broadway, Suite 810","New York","NY","10010","(212) 645-7424","Music","Manhattan Council District #3","Manhattan Community Board #5","Manhattan",40.743523,-73.989073,58,1015625,1008270049,"Hudson Yards-Chelsea-Flatiron-Union Square"
"9","AHL Foundation, Inc.","420 West 23rd Street, #7A","New York","NY","10011","(516) 983-3935","Visual Arts","Manhattan Council District #3","Manhattan Community Board #4","Manhattan",40.746836,-74.002162,93,1012691,1007207501,"Hudson Yards-Chelsea-Flatiron-Union Square"
"10","AKTINA Productions, Inc.","23-50 27th Street","Astoria","NY","11105","(718) 545-1151","Music","Queens Council District #22","Queens Community Board #1","Queens",40.775041,-73.91646,97,4018140,4008540056,"Steinway"
"11","ANDHOW! Theater Company Inc.","138 South Oxford Street, Ste. 4C","Brooklyn","NY","11217","(718) 398-3690","Theater","Brooklyn Council District #35","Brooklyn Community Board #2","Brooklyn",40.685073,-73.973221,179,3000000,3020040048,"Fort Greene"
"12","Abingdon Theatre Company","312 West 36th Street, 6th Floor","New York","NY","10018","(212) 868-2055 x224","Theater","Manhattan Council District #3","Manhattan Community Board #4","Manhattan",40.753755,-73.9932,111,1080495,1007590049,"Hudson Yards-Chelsea-Flatiron-Union Square"
"13","Access Theater","380 Broadway","New York","NY","10013","(212) 966-1047","Theater","Manhattan Council District #1","Manhattan Community Board #1","Manhattan",40.718112,-74.002958,31,1002317,1001950001,"SoHo-TriBeCa-Civic Center-Little Italy"
"14","Actors Company Theatre","900 Broadway, Ste. 905","New York","NY","10003","(212) 645-8228","Theater","Manhattan Council District #2","Manhattan Community Board #5","Manhattan",40.739073,-73.989784,52,1016184,1008480061,"Hudson Yards-Chelsea-Flatiron-Union Square"
"15","Actors Theatre Workshop, Inc.","145 W. 28th St., 3rd Floor","New York","NY","10001","(212) 947-1386","Theater","Manhattan Council District #3","Manhattan Community Board #5","Manhattan",40.746602,-73.991829,95,1015100,1008040011,"Midtown-Midtown South"
"16","Afro-Asian, Inc.","107 Suffolk Street, Apt. 213-A","New York","NY","10002","(212) 253-2280","Music","Manhattan Council District #1","Manhattan Community Board #3","Manhattan",40.718943,-73.986122,1402,1004301,1003530054,"Lower East Side"
"17","After School Rocks, Inc.","187-08 Union Turnpike","Fresh Meadows","NY","11366","(718) 454-0100","Music","Queens Council District #26","Queens Community Board #9","Queens",40.728972,-73.781866,1277,4156126,4072560114,"Jamaica Estates-Holliswood"
"18","Aks Chorale, Inc.","429 East 52nd Street","New York","NY","10022","(212) 755-4061","Music","Manhattan Council District #4","Manhattan Community Board #6","Manhattan",40.754801,-73.964447,8603,1040156,1013640034,"Turtle Bay-East Midtown"
"19","Alchemy Theatre Company of Manhattan","412 West 42nd Street","New York","NY","10036","(212) 967-0901","Theater","Manhattan Council District #3","Manhattan Community Board #4","Manhattan",40.758682,-73.993254,115,1026330,1010510029,"Clinton"
"20","All For One Theater Festival, Inc.","1650 Broadway","New York","NY","10019","(212) 398-7180","Theater","Manhattan Council District #4","Manhattan Community Board #5","Manhattan",40.761964,-73.983684,131,1024811,1010220035,"Midtown-Midtown South"
"21","Alliance for Inclusion in the Arts","1560 Broadway, Suite 1600","New York","NY","10036","(212) 730-4750","Theater","Manhattan Council District #3","Manhattan Community Board #5","Manhattan",40.75886,-73.984843,125,1022661,1009990003,"Midtown-Midtown South"
"22","Alliance for the Development of Theatre Artists, Inc.","520 Eighth Ave., Suite 315","New York","NY","10018","(212) 447-6309","Theater","Manhattan Council District #3","Manhattan Community Board #4","Manhattan",40.753612,-73.992417,109,1083624,1007860001,"Midtown-Midtown South"
"23","Alliance of Queens Artists, Inc.","99-10 Metropolitan Avenue","Forest Hills","NY","11375","(718) 520-9842","Visual Arts","Queens Council District #29","","Queens",40.71086,-73.853439,645,4095202,4038940035,"Forest Hills"
"24","Alliance of Resident Theatres / New York, Inc.","520 Eighth Avenue, Suite 319","New York","NY","10018","(212) 244-6667 x228","Theater","Manhattan Council District #3","Manhattan Community Board #5","Manhattan",40.753612,-73.992417,109,1083624,1007860001,"Midtown-Midtown South"
"25","Amas Musical Theatre, Inc.","257 West 52nd Street, 5th Floor","New York","NY","10019","(212) 563-2565","Theater","Manhattan Council District #3","Manhattan Community Board #2","Manhattan",40.763125,-73.984182,131,1024826,1010240007,"Midtown-Midtown South"
"26","American Academy of Dramatic Arts","120 Madison Ave","New York","NY","7307","(212) 686-9244 x317","Theater","Manhattan Council District #3","Manhattan Community Board #5","Manhattan",40.745402,-73.984691,74,1016957,1008600016,"Midtown-Midtown South"
"27","American Center for Musical Arts, Inc.","201 West 72nd Street, Ste. 3-K","New York","NY","10023","(718) 680-1680","Music","Manhattan Council District #6","Manhattan Community Board #7","Manhattan",40.778954,-73.982412,159,1077846,1011647501,"Lincoln Square"
"28","American Composers Orchestra","244 West 54th Street","New York","NY","10019","(212) 977-8495 x203","Music","Manhattan Council District #3","Manhattan Community Board #4","Manhattan",40.764261,-73.983037,131,1024842,1010250054,"Midtown-Midtown South"
"29","American Folk Art Museum","47-29 32nd Place","Queens","NY","11101","(212) 265-1040 x114","Museum","Manhattan Council District #6","Manhattan Community Board #5","Queens",40.74212,-73.93313,199,4003447,4002520018,"Hunters Point-Sunnyside-West Maspeth"
"30","American Globe Theatre, Ltd.","145 West 46th Street, 3rd Floor","New York","NY","10036","(212) 869-9809","Theater","Manhattan Council District #3","Manhattan Community Board #5","Manhattan",40.757946,-73.983547,125,1022665,1009990012,"Midtown-Midtown South"
"31","American Lyric Theater Center, Inc.","410 West 42nd Street","New York","NY","10036","(646) 216-8298","Music","Manhattan Council District #4","Manhattan Community Board #3","Manhattan",40.758652,-73.993185,115,1026330,1010510029,"Clinton"
"32","American Modern Ensemble, Inc.","400 West 43rd Street, Ste. 39-S","New York","NY","10036","(212) 349-7009","Music","Manhattan Council District #3","Manhattan Community Board #4","Manhattan",40.759173,-73.992326,121,1083745,1010520001,"Clinton"
"33","American Music Center, Inc.","322 8th Avenue","New York","NY","10001","(212) 366-5260 x13","Music","Manhattan Council District #3","Manhattan Community Board #5","Manhattan",40.747294,-73.997023,95,1014225,1007760001,"Midtown-Midtown South"
"34","American Opera Projects, Inc.","138 South Oxford Street #3B","Brooklyn","NY","11217","(718) 398-4024","Music","Brooklyn Council District #35","Brooklyn Community Board #2","Brooklyn",40.685073,-73.973221,179,3000000,3020040048,"Fort Greene"
"35","American Performing Arts Collaborative, Inc.","6 Hancock Place","New York City","NY","10027","(212) 665-7716","Theater","Manhattan Council District #9","Manhattan Community Board #9","Manhattan",40.81029,-73.953685,20901,1059277,1019500056,"Morningside Heights"
"36","American Place Theatre, Inc.","266 West 37th Street, 22nd Floor","New York","NY","10018","(212) 594-4482 x11","Theater","Manhattan Council District #3","Manhattan Community Board #5","Manhattan",40.753632,-73.991009,109,1083624,1007860001,"Midtown-Midtown South"
"37","American Symphony Orchestra League","33 West 60th Street, 5th Floor","New York","NY","10023","(646) 822-4039","Music","Manhattan Council District #6","Manhattan Community Board #7","Manhattan",40.769303,-73.983003,145,1084277,1011130008,"Lincoln Square"
"38","American Symphony Orchestra, Inc.","263 West 38th Street","New York","NY","10018","(212) 868-9276 x16","Music","Manhattan Council District #4","Manhattan Community Board #4","Manhattan",40.75423,-73.990468,113,1014474,1007880011,"Midtown-Midtown South"
"39","American Theatre Wing","230 West 41st Street, Suite 1101","New York","NY","10036","(212) 765-0606 x302","Theater","Manhattan Council District #3","Manhattan Community Board #5","Manhattan",40.755802,-73.988482,113,1080830,1010120015,"Midtown-Midtown South"
"40","Amigos del Museo del Barrio","1230 Fifth Avenue","New York","NY","10029","(212) 831-7272","Visual Arts","Manhattan Council District #8","Manhattan Community Board #11","Manhattan",40.793072,-73.951992,168,1051499,1016100001,"East Harlem South"
"41","An Claidheamh Soluis, Inc.","553 West 51st Street","New York","NY","10019","(212) 757-3318 x205","Theater","Manhattan Council District #3","Manhattan Community Board #4","Manhattan",40.766041,-73.993054,135,1082282,1010800103,"Clinton"
"42","Ansonia Music Outreach Organization, Inc.","330 Wadsworth Avenue 2G","New York","NY","10040","(212) 567-3554","Music","Manhattan Council District #7","Manhattan Community Board #12","Manhattan",40.855188,-73.931061,279,1064084,1021700287,"Washington Heights North"
"43","Anthropologists, Inc.","100 Cabrini Blvd. #24","New York","NY","10033","(917) 557-3517","Theater","Manhattan Council District #7","Manhattan Community Board #12","Manhattan",40.851647,-73.94009,275,1064334,1021790070,"Washington Heights North"
"44","Anthropology Museum of the People of New York","64-19 Kissena Boulevard","Flushing","NY","11367","(718) 428-5650","Museum","Queens Council District #24","Queens Community Board #8","Queens",40.737701,-73.81479,122702,4146646,4067430029,"Pomonok-Flushing Heights-Hillcrest"
"45","Anti-Social Music, Inc.","71 Ocean Parkway 3H","Brooklyn","NY","11218","(646) 489-8791","Music","Brooklyn Council District #33","Brooklyn Community Board #8","Brooklyn",40.649369,-73.974922,504,3124031,3053200001,"Windsor Terrace"
"46","ApexArt Curatorial Program","291 Church Street","New York","NY","10013","(212) 431-5270","Visual Arts","Manhattan Council District #1","Manhattan Community Board #10","Manhattan",40.719084,-74.004654,33,1002206,1001930019,"SoHo-TriBeCa-Civic Center-Little Italy"
"47","Aquila Theatre Company, Inc.","100 Washington Square East","New York","NY","10003","(212) 992-9642","Theater","Manhattan Council District #1","Manhattan Community Board #2","Manhattan",40.73054,-73.995706,59,1008820,1005470001,"West Village"
"48","Arcos Orchestra, Ltd.","17 E 96th St 14B","New York","NY","10128","(772) 766-2851","Music","Manhattan Council District #4","Manhattan Community Board #8","Manhattan",40.78765,-73.955138,16002,1051441,1016020013,"East Harlem South"
"49","Around the Block, Inc.","5 East 22nd Street, Suite 9K","New York","NY","10010","(212) 673-9187","Theater","Manhattan Council District #2","Manhattan Community Board #5","Manhattan",40.740426,-73.988976,56,1016304,1008517501,"Hudson Yards-Chelsea-Flatiron-Union Square"
"50","Art Connects New York","4 West 43rd Street, #507","New York","NY","10036","(646) 546-5334","Visual Arts","Manhattan Council District #1","Manhattan Community Board #2","Manhattan",40.754371,-73.980932,96,1034201,1012580042,"Midtown-Midtown South"
"51","Art Lab, Inc.","1000 Richmond Terrace","Staten Island","NY","10301","(718) 447-8667","Visual Arts","Staten Island Council Dist #49","Staten Island Community Brd #1","Staten Island",40.645232,-74.104674,97,5000000,5000760200,"West New Brighton-New Brighton-St. George"
"52","Art Students League of New York","215 West 57th Street","New York","NY","10019","(212) 247-4510 x108","Visual Arts","Manhattan Council District #7","Manhattan Community Board #5","Manhattan",40.765864,-73.980824,137,1080846,1010290023,"Midtown-Midtown South"
"53","Art in General, Inc.","20 Jay Street","New York","NY","11201","(212) 219-0473 x36","Visual Arts","Manhattan Council District #1","Manhattan Community Board #2","Brooklyn",40.704313,-73.986587,21,3000010,3000190001,"DUMBO-Vinegar Hill-Downtown Brooklyn-Boerum Hill"
"54","Art of the Early Keyboard, Inc.","170 West 73rd Street, Apt. 3C","New York","NY","10023","(212) 967-9157","Music","Manhattan Council District #6","Manhattan Community Board #7","Manhattan",40.778865,-73.980145,157,1029960,1011440061,"Lincoln Square"
"55","Art21, Inc.","231 West 29th Street, #706","New York","NY","10001","(212) 741-7133","Visual Arts","Manhattan Council District #3","Manhattan Community Board #2","Manhattan",40.748299,-73.993937,95,1014283,1007790017,"Midtown-Midtown South"
"56","ArtCouncil, Inc.","210 Eleventh Avenue, Ste. 503","New York","NY","10001","(212) 727-2233 x207","Visual Arts","Manhattan Council District #3","Manhattan Community Board #4","Manhattan",40.74986,-74.006291,99,1012378,1006960065,"Hudson Yards-Chelsea-Flatiron-Union Square"
"57","ArtCrawl Harlem, Inc.","363 Malcolm X Blvd","New York","NY","10027","(212) 866-7427","Visual Arts","Manhattan Council District #9","Manhattan Community Board #10","Manhattan",40.809844,-73.943986,224,1057946,1019130030,"Central Harlem North-Polo Grounds"
"58","Artist Exchange International on Broadway","107 Suffolk Street, #35","New York","NY","10002","(212) 226-5169","Visual Arts","Manhattan Council District #1","Manhattan Community Board #1","Manhattan",40.718943,-73.986122,1402,1004301,1003530054,"Lower East Side"
"59","Artist's Theatre Repertory Ensemble, Inc.","6776 Booth St","Forest Hills","NY","11375","(718) 683-2225","Theater","Queens Council District #29","Queens Community Board #6","Queens",40.724783,-73.851965,71305,4075055,4031670028,"Forest Hills"
"60","Artists Alliance, Inc.","107 Suffolk Street, Room 411","New York","NY","10002","(212) 420-9202","Visual Arts","Manhattan Council District #1","Manhattan Community Board #3","Manhattan",40.718943,-73.986122,1402,1004301,1003530054,"Lower East Side"
"61","Artists Space","55 Walker Street","New York","NY","10013","(212) 226-3970 x307","Visual Arts","Manhattan Council District #1","Manhattan Community Board #1","Manhattan",40.718952,-74.003268,33,1075735,1001937503,"SoHo-TriBeCa-Civic Center-Little Italy"
"62","Artists in Residence, Inc.","155 Plymouth Street","Brooklyn","NY","11201","(212) 255-6651","Visual Arts","Brooklyn Council District #33","Brooklyn Community Board #2","Brooklyn",40.703784,-73.987077,21,3000010,3000190001,"DUMBO-Vinegar Hill-Downtown Brooklyn-Boerum Hill"
"63","Artopolis Development","431 45th Street","Brooklyn","NY","11220","(718) 412-8515","Visual Arts","Brooklyn Council District #38","Brooklyn Community Board #7","Brooklyn",40.648754,-74.008793,80,3011229,3007380064,"Sunset Park West"
"64","Arts Horizons LeRoy Neiman Art Center","2785 Frederick Douglass Blvd.","New York","NY","10039","(212) 862-2787","Visual Arts","Manhattan Council District #9","Manhattan Community Board #10","Manhattan",40.824667,-73.940595,259,1087475,1020450054,"Central Harlem North-Polo Grounds"
"65","Ascension Music Chorus and Orchestra, Inc.","12 West 11th Street","New York","NY","10011","(212) 358-1469","Music","Manhattan Council District #3","Manhattan Community Board #2","Manhattan",40.734328,-73.995775,63,1009538,1005740038,"West Village"
"66","Asia Art Archive in America, Inc.","43 Remsen Street (Garden Floor)","Brooklyn","NY","11201","(718) 522-2299","Visual Arts","Brooklyn Council District #33","Brooklyn Community Board #2","Brooklyn",40.694746,-73.996812,301,3002021,3002470008,"Brooklyn Heights-Cobble Hill"
"67","Asia Society","725 Park Avenue","New York","NY","10021","(212) 327-9218","Museum","Manhattan Council District #4","Manhattan Community Board #4","Manhattan",40.770032,-73.964594,128,1042714,1014050001,"Upper East Side-Carnegie Hill"
"68","Asian American Arts Centre, Inc.","26 Bowery, 3rd Floor","New York","NY","10013","(212) 233-2154","Visual Arts","Manhattan Council District #1","Manhattan Community Board #2","Manhattan",40.714906,-73.996909,29,1001802,1001630035,"Chinatown"
"69","Asian American Women Artists Alliance, Inc.","136 15th Street","Brooklyn","NY","11215","(718) 788-6170","Visual Arts","Brooklyn Council District #38","Brooklyn Community Board #7","Brooklyn",40.667018,-73.99234,117,3023861,3010460036,"Park Slope-Gowanus"
"70","Association for Development of Dramatic Arts, Inc.","301 East 57th St., 3rd Fl.","New York","NY","10022","(212) 583-2706 x15","Theater","Manhattan Council District #1","Manhattan Community Board #3","Manhattan",40.759264,-73.96517,108,1039997,1013500001,"Turtle Bay-East Midtown"
"71","Astoria Big Band","161 Sixth Avenue, 14th floor","New York","NY","10013","(212) 691-6969 x13","Music","","Manhattan Community Board #1","Manhattan",40.725677,-74.003976,37,1007822,1005050031,"SoHo-TriBeCa-Civic Center-Little Italy"
"72","Astoria Music Society, Inc.","22-70 23rd Street","Astoria","NY","11105","(718) 721-8311","Music","Queens Council District #22","Queens Community Board #1","Queens",40.778324,-73.917575,101,4019527,4008780066,"Steinway"
"73","Athena Theatre","1224 St. Nicholas Avenue","New York","NY","10032","(818) 642-6294","Theater","Manhattan Council District #4","Manhattan Community Board #8","Manhattan",40.843094,-73.938269,253,1063062,1021280003,"Washington Heights South"
"74","Atlantic Theater Company","76 Ninth Avenue, Ste. 537","New York","NY","10011","(212) 691-5919","Theater","Manhattan Council District #3","Manhattan Community Board #4","Manhattan",40.741915,-74.004659,83,1013043,1007390001,"Hudson Yards-Chelsea-Flatiron-Union Square"
"75","Australian Aboriginal Theatre Initiative","60 2nd Avenue","New York","NY","10003","(212) 533-0889","Theater","Manhattan Council District #2","Manhattan Community Board #3","Manhattan",40.725827,-73.989678,38,1006165,1004450004,"East Village"
"76","BCT Brooklyn Children's Theatre, Inc.","135 Prospect Park SW #B7","New York","NY","11218","(646) 675-0325","Theater","Brooklyn Council District #39","Brooklyn Community Board #7","Brooklyn",40.656017,-73.973683,171,3121890,3052570045,"Windsor Terrace"
"77","Ballet Orchestra of New York City","438 East 76th Street #4-C","New York","NY","10021","(212) 988-2148","Music","Manhattan Council District #5","Manhattan Community Board #8","Manhattan",40.769984,-73.953168,132,1045938,1014700030,"Lenox Hill-Roosevelt Island"
"78","Bang on a Can, Inc.","80 Hanson Place, Ste. 701","Brooklyn","NY","11217","(718) 852-7755","Music","Brooklyn Council District #35","Brooklyn Community Board #2","Brooklyn",40.685488,-73.974421,35,3057479,3020030034,"Fort Greene"
"79","Bardekova Ensemble","2965 Marion Avenue 3G","New York","NY","10458","(718) 933-6221","Music","Bronx Council District #11","Bronx Community Board #7","Bronx",40.869159,-73.883993,415,2016732,2032920001,"Bedford Park-Fordham North"
"80","Bargemusic, Ltd.","Fulton Ferry Landing","Brooklyn","NY","11201","(718) 624-4061","Music","Brooklyn Council District #33","Brooklyn Community Board #2","Brooklyn",40.703178,-73.994879,21,NA,NA,"DUMBO-Vinegar Hill-Downtown Brooklyn-Boerum Hill"
"81","Barrow Group, Inc.","312 West 36th Street, Apt. 4W","New York","NY","10018","(201) 709-5720","Theater","Manhattan Council District #3","Manhattan Community Board #4","Manhattan",40.753755,-73.9932,111,1080495,1007590049,"Hudson Yards-Chelsea-Flatiron-Union Square"
"82","Bartow-Pell Landmark Fund","895 Shore Road","Bronx","NY","10464","(718) 885-1461","Museum","Bronx Council District #13","Bronx Community Board #10","Bronx",40.875733,-73.80166,504,2097423,2056500001,"park-cemetery-etc-Bronx"
"83","Bayside Glee Club, Inc.","51-17 Reeder Street","Elmhurst","NY","11373","(718) 424-5769","Music","Queens Council District #19","Queens Community Board #4","Queens",40.738106,-73.878263,473,4038776,4015490055,"Elmhurst"
"84","Bedlam, Inc.","2753 Broadway,","New York","NY","10025","(646) 784-1029","Theater","Manhattan Council District #6","Manhattan Community Board #7","Manhattan",40.801216,-73.967901,191,1056629,1018770061,"Upper West Side"
"85","Bella Voce, Inc.","659 85th Street","Brooklyn","NY","11228","(917) 501-0338","Music","Brooklyn Council District #43","Brooklyn Community Board #10","Brooklyn",40.619946,-74.021991,140,3152918,3060280069,"Dyker Heights"
"86","Beth Morrison Projects","666 Ocean Avenue #D1","Brooklyn","NY","11226","(646) 682-7181","Music","Manhattan Council District #4","Manhattan Community Board #8","Brooklyn",40.646568,-73.960354,51001,3117610,3051230016,"Flatbush"
"87","Big Apple Circus, Ltd.","One MetroTech Center-North","New York","NY","11201","(212) 268-2500 x148","Theater","Manhattan Council District #3","Manhattan Community Board #5","Brooklyn",40.694059,-73.985741,11,3000000,3001420100,"DUMBO-Vinegar Hill-Downtown Brooklyn-Boerum Hill"
"88","Big Apple Performing Arts, Inc.","676A 9th Avenue, Suite 405","New York","NY","10036","(212) 344-1777 x11","Music","Manhattan Council District #1","Manhattan Community Board #1","Manhattan",40.761457,-73.990412,127,1025074,1010370062,"Clinton"
"89","Black Spectrum Theatre Company, Inc.","119-07 Merrick Boulevard, 2nd Floor","Jamaica","NY","11434","(718) 723-1800","Theater","Queens Council District #27","Queens Community Board #12","Queens",40.685612,-73.772853,426,4268835,4124060180,"St. Albans"
"90","Blessed Unrest Theatre, Inc.","530 W. 45th Street, #4G","New York","NY","10036","(212) 713-0163","Theater","Manhattan Council District #3","Manhattan Community Board #4","Manhattan",40.762132,-73.995473,129,1088825,1010737502,"Clinton"
"91","Bloomingdale School of Music, Inc.","323 West 108th Street","New York","NY","10025","(212) 663-6021 x23","Music","Manhattan Council District #9","Manhattan Community Board #7","Manhattan",40.80314,-73.968073,195,1057302,1018930010,"Morningside Heights"
"92","Blue Coyote Theater Group, Inc.","380 Broadway, 4th Floor","New York","NY","10013","(646) 242-6260","Theater","Manhattan Council District #1","Manhattan Community Board #1","Manhattan",40.718112,-74.002958,31,1002317,1001950001,"SoHo-TriBeCa-Civic Center-Little Italy"
"93","Blue Heron Theatre, Inc.","645 West End Avenue, Suite 7B","New York","NY","10025","(212) 787-0422","Theater","Manhattan Council District #6","Manhattan Community Board #7","Manhattan",40.792388,-73.975316,179,1034102,1012510062,"Upper West Side"
"94","Blue Pipa, Inc.","68-39 Harrow Street","Forest Hills","NY","11375","(718) 459-1730","Music","Queens Council District #29","Queens Community Board #6","Queens",40.717143,-73.853122,709,4076410,4032000048,"Forest Hills"
"95","Booklyn, Inc.","37 Greenpoint Avenue","New York","NY","11222","(718) 383-9621","Visual Arts","Brooklyn Council District #33","Brooklyn Community Board #1","Brooklyn",40.729756,-73.958998,565,3064672,3025570001,"Greenpoint"
"96","Boricua Festival Committee, Inc.","313 97th Street, #1B","Brooklyn","NY","11209","(718) 492-7129","Music","Brooklyn Council District #38","Brooklyn Community Board #7","Brooklyn",40.615625,-74.033804,5601,3155738,3061220001,"Bay Ridge"
"97","Brave New World Repertory Theatre, Inc.","303 Westminster Road","Brooklyn","NY","11218","(917) 660-4660","Theater","Brooklyn Council District #40","Brooklyn Community Board #14","Brooklyn",40.641295,-73.967271,1522,3118328,3051430102,"Flatbush"
"98","Brazilian Endowment for the Arts, Inc.","240E 52nd street","New York","NY","10022","(212) 371-1556","Music","Manhattan Council District #5","Manhattan Community Board #5","Manhattan",40.756658,-73.968879,98,1038479,1013250035,"Turtle Bay-East Midtown"
"99","Breakthru Education, Inc.","235 Lincoln Place","New York","NY","11217","(718) 614-2289","Theater","Brooklyn Council District #39","Brooklyn Community Board #6","Brooklyn",40.675041,-73.9728,159,3024463,3010590050,"Park Slope-Gowanus"
"100","Bridge, Inc.","290 Lenox Avenue, 3rd Floor","New York","NY","10027","(212) 663-3000","Visual Arts","Manhattan Council District #8","Manhattan Community Board #7","Manhattan",40.807457,-73.945704,200,1053487,1017220069,"Central Harlem South"
"101","Broadway Housing Communities, Inc.","583 Riverside Drive","New York","NY","10031","(212) 568-2030","Visual Arts","Manhattan Council District #7","Manhattan Community Board #9","Manhattan",40.821356,-73.957193,22301,1059949,1020020002,"Manhattanville"
"102","Broadway League Foundation, Inc.","729 Seventh Avenue, 5th Flr","New York","NY","10019","(212) 764-1122","Theater","Manhattan Council District #4","Manhattan Community Board #5","Manhattan",40.760103,-73.983973,125,1022699,1010017501,"Midtown-Midtown South"
"103","Broken Box Mime Theater","201 W 94th St. #1A","New York","NY","10025","(617) 877-8937","Theater","Manhattan Council District #6","Manhattan Community Board #7","Manhattan",40.792842,-73.971505,183,1033677,1012420029,"Upper West Side"
"104","Bronx Community College Association, Inc.","2155 University Avenue","Bronx","NY","10453","(718) 289-5127","Music","Bronx Council District #14","Bronx Community Board #5","Bronx",40.857899,-73.909307,255,2014731,2032170060,"Kingsbridge Heights"
"105","Bronx Museum of the Arts","1040 Grand Concourse","Bronx","NY","10456","(718) 681-6000","Visual Arts","Bronx Council District #16","Bronx Community Board #4","Bronx",40.831063,-73.920361,18102,2002826,2024620001,"East Concourse-Concourse Village"
"106","Bronx Opera Company","5 Minerva Place (2J)","Bronx","NY","10468","(718) 365-4209","Music","","Bronx Community Board #7","Bronx",40.871469,-73.891036,40701,2017596,2033190064,"Van Cortlandt Village"
"107","BronxArtSpace, Inc.","305 East 140th St. , 1A","New York City,Bronx","NY","10454","(718) 401-8144","Visual Arts","Bronx Council District #17","Bronx Community Board #1","Bronx",40.811694,-73.924961,39,2000747,2023157501,"Mott Haven-Port Morris"
"108","Brooklyn Art Song Society","60 East 8th Street, Apt. 30 E","New York","NY","10003","(917) 509-6258","Music","Manhattan Council District #1","Manhattan Community Board #2","Brooklyn",40.648658,-73.972803,504,NA,NA,"Windsor Terrace"
"109","Brooklyn Chamber Music Society","49 Cheever Place","Brooklyn","NY","11231","(718) 858-3523","Music","Brooklyn Council District #39","Brooklyn Community Board #6","Brooklyn",40.685713,-73.999524,49,3003770,3003220006,"Carroll Gardens-Columbia Street-Red Hook"
"110","Brooklyn Children's Museum","145 Brooklyn Avenue","Brooklyn","NY","11213","(718) 735-4400","Museum","Brooklyn Council District #36","Brooklyn Community Board #8","Brooklyn",40.674773,-73.944464,341,3031049,3012290001,"Crown Heights North"
"111","Brooklyn Conservatory of Music","58 Seventh Avenue","Brooklyn","NY","11217","(718) 622-3300 x13","Music","Brooklyn Council District #39","Brooklyn Community Board #6","Brooklyn",40.675843,-73.974533,159,3019495,3009480048,"Park Slope-Gowanus"
"112","Brooklyn Historical Society","128 Pierrepont Street","Brooklyn","NY","11201","(718) 222-4111 x239","Museum","Brooklyn Council District #33","Brooklyn Community Board #1","Brooklyn",40.69502,-73.992387,502,3002006,3002430047,"Brooklyn Heights-Cobble Hill"
"113","Brooklyn Institute of Arts and Sciences","200 Eastern Parkway","Brooklyn","NY","11238","(718) 638-5000","Visual Arts","Brooklyn Council District #35","Brooklyn Community Board #9","Brooklyn",40.671835,-73.963042,177,3029667,3011830026,"park-cemetery-etc-Brooklyn"
"114","Brooklyn Philharmonic Symphony Orchestra, Inc.","20 Jay Street, Suite M16","Brooklyn","NY","11201","(718) 488-7711","Music","Brooklyn Council District #33","Brooklyn Community Board #6","Brooklyn",40.704313,-73.986587,21,3000010,3000190001,"DUMBO-Vinegar Hill-Downtown Brooklyn-Boerum Hill"
"115","Brooklyn Theatre Arts Project, Inc.","1618 76th Street","Brooklyn","NY","11214","(718) 791-9667","Theater","Brooklyn Council District #43","Brooklyn Community Board #10","Brooklyn",40.615389,-74.000936,182,3160774,3062360011,"Bensonhurst West"
"116","Brooklyn Waterfront Artist Coalition","481 Van Brunt Street, Unit 7","Brooklyn","NY","11231","(718) 422-1111","Visual Arts","Brooklyn Council District #38","Brooklyn Community Board #6","Brooklyn",40.674365,-74.016392,53,NA,NA,"Carroll Gardens-Columbia Street-Red Hook"
"117","Brooklyn Youth Chorus Academy, Inc.","179 Pacific Street","Brooklyn","NY","11201","(718) 243-9447 x235","Music","Brooklyn Council District #39","Brooklyn Community Board #6","Brooklyn",40.689281,-73.993549,45,3002990,3002867503,"Carroll Gardens-Columbia Street-Red Hook"
"118","Brooklyn Youth Music Project, Inc.","296 Windsor Pl","Brooklyn","NY","11218","(718) 350-1265","Music","Brooklyn Council District #39","Brooklyn Community Board #7","Brooklyn",40.656816,-73.974703,171,3121884,3052570029,"Windsor Terrace"
"119","Bukharian Jewish Theater Studio, Inc.","99-37 64th Road","Rego Park","NY","11374","(718) 459-3341","Theater","Queens Council District #24","Queens Community Board #8","Queens",40.730758,-73.854394,721,4050828,4021130059,"Forest Hills"
"120","Bukharian Jewish Theater Vozrozhdeniye","139-60 85th Drive, Suite 4E","Queens","NY","11435","(718) 293-0593","Theater","Queens Council District #24","Queens Community Board #8","Queens",40.708914,-73.814744,214,4440103,4097100037,"Briarwood-Jamaica Hills"
"121","CBD Music, Inc.","552 Riverside Drive","New York","NY","10027","(646) 352-1826","Music","Manhattan Council District #9","Manhattan Community Board #9","Manhattan",40.816576,-73.960545,211,1059892,1019950077,"Morningside Heights"
"122","CSC Repertory, Ltd.","136 East 13th Street","New York","NY","10003","(212) 677-4210 x14","Theater","Manhattan Council District #2","Manhattan Community Board #3","Manhattan",40.733145,-73.988984,42,1009015,1005580024,"East Village"
"123","CUE Art Foundation","137 West 25th Street","New York","NY","10001","(212) 206-3583","Visual Arts","Manhattan Council District #3","Manhattan Community Board #4","Manhattan",40.744681,-73.99302,91,1068241,1008017501,"Hudson Yards-Chelsea-Flatiron-Union Square"
"124","Camera Club of New York, Inc.","126 Baxter Street","New York","NY","10013","(718) 387-2118","Visual Arts","Manhattan Council District #3","Manhattan Community Board #4","Manhattan",40.718142,-73.998954,41,1002668,1002070015,"SoHo-TriBeCa-Civic Center-Little Italy"
"125","Canopy Canopy Canopy, Inc.","264 Canal Street, Suite 3W","New York","NY","10013","(240) 472-7260","Visual Arts","Brooklyn Council District #39","Brooklyn Community Board #6","Manhattan",40.718752,-74.000996,31,1002345,1001960015,"SoHo-TriBeCa-Civic Center-Little Italy"
"126","Canticorum Virtuosi, Inc.","1392 Madison Avenue","New York","NY","10029","(914) 763-3453","Music","Manhattan Council District #8","Manhattan Community Board #7","Manhattan",40.78763,-73.953885,16002,1051454,1016020057,"East Harlem South"
"127","Caribbean American Repertory Theatre, Inc.","114-13 Ovid Place","New York","NY","11412","(212) 963-6459","Theater","Queens Council District #27","Queens Community Board #12","Queens",40.697103,-73.766546,400,4221406,4104030027,"St. Albans"
"128","Center for Italian Modern Art","421 Broome Street","New York","NY","10013","(646) 370-3596","Museum","Manhattan Council District #1","Manhattan Community Board #2","Manhattan",40.721252,-73.998662,45,1079136,1004737505,"SoHo-TriBeCa-Civic Center-Little Italy"
"129","Central Park Brass, Inc.","1435 Lexington Avenue, #7F","New York","NY","10128","(646) 201-5242","Music","Manhattan Council District #4","Manhattan Community Board #8","Manhattan",40.784248,-73.952103,15801,1048403,1015220050,"Upper East Side-Carnegie Hill"
"130","Chamber Music America, Inc.","12 West 32nd Street","New York","NY","10001","(212) 242-2022 x15","Music","Manhattan Council District #3","Manhattan Community Board #5","Manhattan",40.747475,-73.986278,76,1015826,1008330052,"Midtown-Midtown South"
"131","Chamber Music Society of Lincoln Center, Inc.","70 Lincoln Center Plaza, Tenth Floor","New York","NY","10023","(212) 875-5799","Music","Manhattan Council District #6","Manhattan Community Board #7","Manhattan",40.773626,-73.983591,149,1077844,1011377501,"Lincoln Square"
"132","Chamber Orchestra of New York Ottorino Respighi","450 Lexington Avenue, #1514","New York","NY","10163","(646) 642-8441","Music","Manhattan Council District #5","Manhattan Community Board #6","Manhattan",40.753102,-73.974854,92,1085671,1012800090,"Turtle Bay-East Midtown"
"133","Character Studies Productions, Inc.","202 West 107th Street 6-W","New York","NY","10025","(212) 665-8279","Theater","Manhattan Council District #8","Manhattan Community Board #7","Manhattan",40.801229,-73.965513,195,1056641,1018780036,"Morningside Heights"
"134","Chelsea Art Museum","556 West 22nd Street","New York","NY","10011","(212) 255-0719","Museum","Manhattan Council District #3","Manhattan Community Board #4","Manhattan",40.747733,-74.006374,99,1012319,1006930064,"Hudson Yards-Chelsea-Flatiron-Union Square"
"135","Chelsea Symphony","245 Eighth Avenue","New York","NY","10011","(888) 741-2915","Music","Manhattan Council District #2","Manhattan Community Board #4","Manhattan",40.744901,-73.998784,93,1013361,1007460038,"Hudson Yards-Chelsea-Flatiron-Union Square"
"136","Cherry Lane Alternative, Inc.","38 Commerce Street","New York","NY","10014","(212) 989-2020 x31","Theater","Manhattan Council District #3","Manhattan Community Board #2","Manhattan",40.731451,-74.005203,67,1009827,1005840027,"West Village"
"137","Children's Aid Society","105 East 22nd Street","New York","NY","10010","(212) 949-4696","Music","Manhattan Council District #2","Manhattan Community Board #6","Manhattan",40.739265,-73.986215,68,1018010,1008780001,"Gramercy"
"138","Children's Art Carnival","62 Hamilton Terrace","New York","NY","10031","(212) 234-4093","Visual Arts","Manhattan Council District #7","Manhattan Community Board #9","Manhattan",40.823075,-73.946309,227,1060961,1020500064,"Hamilton Heights"
"139","Children's Museum of Manhattan","212 West 83rd Street","New York","NY","10024","(212) 721-1223","Museum","Manhattan Council District #6","Manhattan Community Board #7","Manhattan",40.785946,-73.976961,171,1032767,1012300038,"Upper West Side"
"140","Children's Museum of the Arts","103 Charlton Street","New York","NY","10014","(212) 274-0986","Museum","Manhattan Council District #3","Manhattan Community Board #2","Manhattan",40.7274,-74.008006,37,1010378,1005980058,"SoHo-TriBeCa-Civic Center-Little Italy"
"141","Children's Theatre Company of New York","526 West 26th Street","New York","NY","10001","(212) 633-6629","Theater","Manhattan Council District #3","Manhattan Community Board #4","Manhattan",40.750094,-74.003999,99,1012386,1006970047,"Hudson Yards-Chelsea-Flatiron-Union Square"
"142","Chinese Theatre Works, Inc.","37-18 Northern Boulevard, # 105","Long Island City","NY","11101","(718) 392-3493","Theater","Queens Council District #21","Queens Community Board #3","Queens",40.752096,-73.925887,171,4003103,4002140040,"Hunters Point-Sunnyside-West Maspeth"
"143","Choral Chameleon, Inc.","199 Carroll Street","New York","NY","11231","(973) 220-8593","Music","Manhattan Council District #3","Manhattan Community Board #5","Brooklyn",40.681472,-73.997963,65,3004837,3003510048,"Carroll Gardens-Columbia Street-Red Hook"
"144","Circle in the Square Theatre School, Inc.","1633 Broadway","New York","NY","10019","(212) 307-0388","Theater","Manhattan Council District #3","Manhattan Community Board #5","Manhattan",40.761574,-73.983962,131,1024812,1010220043,"Midtown-Midtown South"
"145","Circus Amok, Inc.","190 Bedford Avenue, Apt. 213","Brooklyn","NY","11211","(718) 486-7432","Theater","Brooklyn Council District #33","Brooklyn Community Board #1","Brooklyn",40.717564,-73.958031,553,3062083,3023270026,"North Side-South Side"
"146","Citizens Against Recidivism, Inc.","137-58 Thurston St","Springfield Gardens","NY","11413","(347) 626-7233","Visual Arts","Queens Council District #27","Queens Community Board #12","Queens",40.673254,-73.760079,330,4534276,4130230042,"Springfield Gardens North"
"147","City Grand Opera Society, Inc.","250 West 54th Street, Suite 807","New York","NY","10019","(212) 245-8837","Music","Manhattan Council District #4","Manhattan Community Board #8","Manhattan",40.764308,-73.983145,131,1024842,1010250054,"Midtown-Midtown South"
"148","City Island Theater Group","160 Pilot Street, #127","Bronx","NY","10464","(718) 885-3190","Theater","Bronx Council District #13","Bronx Community Board #10","Bronx",40.841299,-73.783771,516,2082434,2056400018,"Pelham Bay-Country Club-City Island"
"149","City Lights Youth Theatre, Inc.","630 Ninth Avenue, Suite 1411","New York","NY","10036","(212) 262-4104","Theater","Manhattan Council District #3","Manhattan Community Board #4","Manhattan",40.760038,-73.991449,121,1024982,1010350001,"Clinton"
"150","CityArts, Inc.","525 Broadway, Ste. 700","New York","NY","10012","(212) 966-0377","Visual Arts","Manhattan Council District #1","Manhattan Community Board #2","Manhattan",40.722852,-73.998972,49,1007248,1004840009,"SoHo-TriBeCa-Civic Center-Little Italy"
"151","Classic Chamber Players","1133 Broadway","New York","NY","10010","(914) 762-8878","Music","Manhattan Council District #3","Manhattan Community Board #5","Manhattan",40.743523,-73.989073,58,1015625,1008270049,"Hudson Yards-Chelsea-Flatiron-Union Square"
"152","Classical Domain","218 East 18th Street","New York","NY","10003","(212) 366-6900 x201","Music","Brooklyn Council District #33","Brooklyn Community Board #6","Brooklyn",40.645866,-73.962408,512,3117582,3051210018,"Flatbush"
"153","Cliplight Theatre Company, Inc.","555 West 52nd Street, Apt. 806","New York","NY","10019","(917) 385-9090","Theater","Manhattan Council District #3","Manhattan Community Board #4","Manhattan",40.76671,-73.992697,135,1088745,1010810070,"Clinton"
"154","Clubbed Thumb, Inc.","440 Lafayette St, 4th Floor","New York","NY","10003","(212) 228-0153","Theater","Manhattan Council District #2","Manhattan Community Board #6","Manhattan",40.729327,-73.991907,57,1088676,1005450026,"West Village"
"155","Coalition to Preserve Reggae Music, Inc.","1199 Ocean Avenue","New York","NY","11230","(718) 421-6927","Music","Brooklyn Council District #45","Brooklyn Community Board #14","Brooklyn",40.633332,-73.957818,766,3121393,3052410006,"Flatbush"
"156","Cocolart","555 West 186th Street, #4C","New York","NY","10033","(646) 225-0333","Visual Arts","Manhattan Council District #10","Manhattan Community Board #12","Manhattan",40.852009,-73.930587,269,1063801,1021570093,"Washington Heights North"
"157","Collaborative Arts Project 21, Inc.","18 West 18th Street,  6th Floor","New York","NY","10011","(212) 807-0202 x14","Theater","Manhattan Council District #5","Manhattan Community Board #3","Manhattan",40.738859,-73.99266,54,1015426,1008190056,"Hudson Yards-Chelsea-Flatiron-Union Square"
"158","Collaborative Urban Sculpture, Inc.","62 Washington Ave. #1","Brooklyn","NY","11205","(917) 418-3516","Visual Arts","Brooklyn Council District #33","Brooklyn Community Board #2","Brooklyn",40.69688,-73.967587,543,3054139,3018740042,"park-cemetery-etc-Brooklyn"
"159","Collapsable Giraffe, Inc.","251 Pacific Street, Apt. 25","Brooklyn","NY","11201","(917) 821-4451","Theater","Brooklyn Council District #34","Brooklyn Community Board #1","Brooklyn",40.68835,-73.990499,43,3000830,3001810039,"DUMBO-Vinegar Hill-Downtown Brooklyn-Boerum Hill"
"160","Colonial Dames of America/Mount Vernon Hotel Museum & Garden","421 East 61st Street","New York","NY","10065","(212) 838-6878 x28","Museum","Manhattan Council District #5","Manhattan Community Board #8","Manhattan",40.760589,-73.960401,10602,1045284,1014560012,"Lenox Hill-Roosevelt Island"
"161","Colonial Farmhouse Restoration Society of Bellerose, Inc.","73-50 Little Neck Parkway","Floral Park","NY","11004","(718) 347-3276 x13","Museum","Queens Council District #23","Queens Community Board #13","Queens",40.748163,-73.719431,1567,4438378,4084010001,"Bellerose"
"162","Colt Coeur Theater Company, Inc.","138 South Oxford Street","Brooklyn","NY","11217","(646) 489-7380","Theater","Brooklyn Council District #33","Brooklyn Community Board #2","Brooklyn",40.685073,-73.973221,179,3000000,3020040048,"Fort Greene"
"163","Community Center of the Rockaway Peninsula, Inc.","257 Beach 17th Street","Far Rockaway","NY","11691","(718) 868-2300 x206","Music","Queens Council District #31","Queens Community Board #14","Queens",40.596751,-73.751147,101001,4454258,4156340094,"Far Rockaway-Bayswater"
"164","Community New Horizons of New York, Inc.","341 Wadsworth Avenue, Suite B","New York","NY","10040","(212) 543-0682","Visual Arts","Manhattan Council District #10","Manhattan Community Board #12","Manhattan",40.855572,-73.930757,279,1064021,1021690001,"Washington Heights North"
"165","Composers Collaborative, Inc.","210 Riverside Drive, Apt. 11G","New York","NY","10025","(212) 663-1967","Music","Manhattan Council District #6","Manhattan Community Board #7","Manhattan",40.79423,-73.976518,179,1034130,1012520034,"Upper West Side"
"166","Composers Concordance, Inc.","1510 york ave #2b","New Yrok","NY","10075","(212) 663-8826","Music","Manhattan Council District #5","Manhattan Community Board #8","Manhattan",40.771967,-73.950004,136,1050773,1015760049,"Yorkville"
"167","Concert Artists Guild, Inc.","850 Seventh Avenue","New York","NY","10019","(212) 333-5200 x11","Music","Manhattan Council District #3","Manhattan Community Board #5","Manhattan",40.763942,-73.981192,137,1024854,1010260032,"Midtown-Midtown South"
"168","Concerts in Motion, Inc.","341 W38th Street","New York","NY","10018","(212) 498-9868","Music","Manhattan Council District #3","Manhattan Community Board #7","Manhattan",40.755237,-73.992864,115,1013637,1007620011,"Clinton"
"169","Concerts in the Heights","251 Seaman Avenue, #1F","New York","NY","10034","(212) 543-0475","Music","Manhattan Council District #7","Manhattan Community Board #12","Manhattan",40.871766,-73.918157,307,1065036,1022430366,"Marble Hill-Inwood"
"170","Concrete Temple Theatre","211 East 14th Street, Apt. 10","New York","NY","10003","(212) 598-9135","Theater","Manhattan Council District #2","Manhattan Community Board #6","Manhattan",40.733092,-73.986678,48,1019503,1008960010,"Gramercy"
"171","Conference House Association, Inc.","298 Satterlee Street","Staten Island","NY","10307","(718) 984-0415","Museum","Staten Island Council Dist #51","Staten Island Community Brd #3","Staten Island",40.502357,-74.25144,24402,5126463,5078570001,"Charleston-Richmond Valley-Tottenville"
"172","Contemporary Art for America, Inc.","330 West 15th Street, Suite 5D","New York","NY","10011","(212) 645-2895","Museum","Manhattan Council District #3","Manhattan Community Board #4","Manhattan",40.740866,-74.003046,83,1013028,1007380057,"Hudson Yards-Chelsea-Flatiron-Union Square"
"173","Converging Arts Media Organization","57 Stanton Street","New York","NY","10002","(212) 995-5290","Visual Arts","Manhattan Council District #1","Manhattan Community Board #3","Manhattan",40.721976,-73.990259,3601,1077627,1004210060,"Chinatown"
"174","Cooper-Hewitt, National Design Museum","2 East 91st Street","New York","NY","10128","(212) 849-8373","Museum","Manhattan Council District #5","Manhattan Community Board #8","Manhattan",40.784607,-73.957866,15002,1046980,1015020001,"Upper East Side-Carnegie Hill"
"175","Council For Living Music, Inc.","322 West 48th Street, 3rd Floor","New York","NY","10036","(212) 245-4802","Music","Manhattan Council District #3","Manhattan Community Board #4","Manhattan",40.761399,-73.987896,127,1025108,1010380043,"Clinton"
"176","Council of Peoples Organization","1081 Coney Island Avenue","Brooklyn","NY","11230","(718) 434-3266","Music","Brooklyn Council District #45","Brooklyn Community Board #14","Brooklyn",40.631068,-73.966441,528,3178916,3066860076,"Flatbush"
"177","Coyote REP Theatre Company","360 W 28th St, Apt. 4A","New York","NY","10001","(917) 584-8796","Theater","Manhattan Council District #3","Manhattan Community Board #4","Manhattan",40.749479,-73.998318,97,1013462,1007517501,"Hudson Yards-Chelsea-Flatiron-Union Square"
"178","Creative Alternatives of New York, Inc.","225 West 99th Street","New York","NY","10025","(212) 222-1969","Theater","Manhattan Council District #8","Manhattan Community Board #7","Manhattan",40.796267,-73.969586,187,1084035,1018710029,"Upper West Side"
"179","Creative Ammo, Inc.","18 East 41st Street, Suite 1806","New York","NY","10017","(212) 807-1337 x14","Theater","Manhattan Council District #4","Manhattan Community Board #4","Manhattan",40.752417,-73.980448,82,1035324,1012750061,"Murray Hill-Kips Bay"
"180","Creative Arts Team","101 West 31st Street, 6th Floor","New York","NY","10001","(212) 652-2830","Theater","Manhattan Council District #3","Manhattan Community Board #5","Manhattan",40.748084,-73.989588,101,1015182,1008070039,"Midtown-Midtown South"
"181","Creative Capital Foundation","65 Bleecker Street","New York","NY","10012","(212) 598-9900","Visual Arts","Manhattan Council District #1","Manhattan Community Board #1","Manhattan",40.726204,-73.995173,5502,1008454,1005290072,"West Village"
"182","Crown Heights Jewish Community Council","375 Kingston Avenue","Brooklyn","NY","11213","(347) 432-3777","Visual Arts","Brooklyn Council District #35","Brooklyn Community Board #9","Brooklyn",40.666153,-73.942485,333,3330806,3012930001,"Crown Heights South"
"183","Cygnus Ensemble, Inc.","400 West 43rd Street, Apt. 11G","New York","NY","10036","(914) 665-2254","Music","Manhattan Council District #3","Manhattan Community Board #4","Manhattan",40.759173,-73.992326,121,1083745,1010520001,"Clinton"
"184","D.U.M.B.O. Arts Center, Inc.","111 Front Street, #212","Brooklyn","NY","11201","(718) 694-0831","Visual Arts","Brooklyn Council District #33","Brooklyn Community Board #2","Brooklyn",40.70251,-73.988975,21,3000088,3000380001,"DUMBO-Vinegar Hill-Downtown Brooklyn-Boerum Hill"
"185","Da Capo Chamber Players, Inc.","215 West 90th Street, Ste. 1G","New York","NY","10024","(212) 873-1065","Music","Manhattan Council District #6","Manhattan Community Board #7","Manhattan",40.790494,-73.973717,179,1033556,1012387501,"Upper West Side"
"186","Daniel's Music Foundation","1641 Third Avenue","New York","NY","10128","(212) 289-8912","Music","Manhattan Council District #5","Manhattan Community Board #8","Manhattan",40.782491,-73.951292,154,1086173,1015377501,"Yorkville"
"187","Dare2Draw","23 West 73rd Street","New York","NY","10023","(917) 864-6242","Visual Arts","Manhattan Council District #6","Manhattan Community Board #7","Manhattan",40.777182,-73.976108,157,1028661,1011260014,"Lincoln Square"
"188","Death By Audio","49 South 2nd St","Brooklyn","NY","11221","(518) 321-4651","Music","Brooklyn Council District #33","Brooklyn Community Board #1","Brooklyn",40.71452,-73.965955,551,3062892,3024030041,"North Side-South Side"
"189","Desipina Productions, Inc.","138 South Oxford Street, Apt. 1C","Brooklyn","NY","11217","(212) 564-8666","Theater","Brooklyn Council District #35","Brooklyn Community Board #2","Brooklyn",40.685073,-73.973221,179,3000000,3020040048,"Fort Greene"
"190","Dia Center for the Arts","535 West 22nd Street, 4th Floor","New York","NY","10011","(212) 293-5505","Visual Arts","Manhattan Council District #4","Manhattan Community Board #4","Manhattan",40.747495,-74.005756,99,1012326,1006940014,"Hudson Yards-Chelsea-Flatiron-Union Square"
"191","Dicapo Opera Theatre Corp.","220 East 54th Street, Ste. 11J","New York","NY","10022","(212) 288-9438 x11","Music","Manhattan Council District #4","Manhattan Community Board #8","Manhattan",40.758033,-73.968261,98,1038567,1013270037,"Turtle Bay-East Midtown"
"192","Dieu Donne Paper Mill, Inc.","63 Flushing Avenue, Unit 112","Brooklyn","NY","11205","(212) 226-0573 x304","Visual Arts","Manhattan Council District #3","Manhattan Community Board #5","Brooklyn",40.69802,-73.974986,543,3335129,3020230001,"park-cemetery-etc-Brooklyn"
"193","Diller-Quaile School of Music, Inc.","24 East 95th Street","New York","NY","10128","(212) 369-1484 x22","Music","Manhattan Council District #4","Manhattan Community Board #8","Manhattan",40.786829,-73.955341,16001,1047407,1015060060,"Upper East Side-Carnegie Hill"
"194","Discipleship Outreach Ministries, Inc","5220 4th Avenue","Brooklyn","NY","11220","(718) 360-8100","Music","Brooklyn Council District #38","Brooklyn Community Board #7","Brooklyn",40.645191,-74.013924,76,3013857,3008060046,"Sunset Park West"
"195","Divaria Productions Inc","63 Thompson Street Apt 4D","New York","NY","10012","(917) 250-2087","Music","Manhattan Council District #3","Manhattan Community Board #2","Manhattan",40.724211,-74.0032,47,1007366,1004890035,"SoHo-TriBeCa-Civic Center-Little Italy"
"196","Doing Art Together, Inc.","1841 Broadway,  Apt. 704","New York","NY","10023","(212) 245-8134","Visual Arts","Manhattan Council District #6","Manhattan Community Board #7","Manhattan",40.769158,-73.982429,145,1027189,1011130018,"Lincoln Square"
"197","Dorsky Gallery Curatorial Programs","11-03 45 Avenue","Long Island City","NY","11101","(718) 937-6317","Visual Arts","Queens Council District #26","Queens Community Board #2","Queens",40.747722,-73.94943,7,4000441,4000520020,"Hunters Point-Sunnyside-West Maspeth"
"198","Double Decker Productions","484 W.43rd Street","New York","NY","10036","(646) 765-5292","Theater","Manhattan Council District #3","Manhattan Community Board #4","Manhattan",40.76009,-73.994502,121,1083746,1010520001,"Clinton"
"199","Double Entendre Music Ensemble, Inc.","809 West 181st Street #165","New York","NY","10033","(212) 740-2909","Music","Manhattan Council District #10","Manhattan Community Board #12","Manhattan",40.85104,-73.938717,273,1064336,1021790090,"Washington Heights North"
"200","Downtown Art Company, Inc.","70 East 4th Street","New York","NY","10003","(917) 587-6889","Theater","Manhattan Council District #2","Manhattan Community Board #3","Manhattan",40.726563,-73.990331,38,1077966,1004590021,"East Village"
"201","Downtown Music Productions, Inc.","310 East 12th Street, Apt. 2H","New York","NY","10003","(212) 477-1594","Music","Manhattan Council District #2","Manhattan Community Board #1","Manhattan",40.730789,-73.985391,40,1082513,1004530011,"East Village"
"202","Drama Dept. Incorporated","9 Desbrosses Street, 2nd floor","New York","NY","10013","(212) 633-9108","Theater","Manhattan Council District #1","Manhattan Community Board #1","Manhattan",40.723343,-74.008698,39,1002856,1002227503,"SoHo-TriBeCa-Civic Center-Little Italy"
"203","Drama League of New York, Inc.","32 Avenue of the Americas","New York","NY","10013","(212) 244-9494 x6","Theater","Manhattan Council District #3","Manhattan Community Board #5","Manhattan",40.72008,-74.005184,33,1002192,1001920001,"SoHo-TriBeCa-Civic Center-Little Italy"
"204","Drawing Center, Inc.","35 Wooster Street","New York","NY","10013","(212) 219-2166 x115","Museum","Manhattan Council District #1","Manhattan Community Board #2","Manhattan",40.722292,-74.002731,47,1007088,1004757502,"SoHo-TriBeCa-Civic Center-Little Italy"
"205","Drilling Company Theatrical Productions","107 West 82nd Street, Ste. 1A","New York","NY","10024","(917) 330-4234","Theater","Manhattan Council District #6","Manhattan Community Board #7","Manhattan",40.78414,-73.9746,169,1081465,1012137504,"Upper West Side"
"206","Dyckman Farmhouse Museum Alliance","4881 Broadway","New York","NY","10034","(212) 304-9422","Museum","Manhattan Council District #10","Manhattan Community Board #12","Manhattan",40.867125,-73.92283,295,1075616,1022410035,"Marble Hill-Inwood"
"207","ENSEMBLE MISE-EN, Inc.","24 Waverly Place  Rm 268","New York","NY","10003","(217) 721-8936","Music","Manhattan Council District #1","Manhattan Community Board #2","Manhattan",40.730398,-73.994938,59,1008822,1005470005,"West Village"
"208","EPIC Players Inc","115 Central Park West","New York","NY","10023","(347) 687-7610","Theater","Manhattan Council District #6","Manhattan Community Board #7","Manhattan",40.775878,-73.976217,157,1028618,1011240027,"Lincoln Square"
"209","Early Music Foundation, Inc.","10 West 68th Street","New York","NY","10023","(212) 749-6600","Music","Manhattan Council District #6","Manhattan Community Board #7","Manhattan",40.773809,-73.978211,153,1028244,1011200033,"Lincoln Square"
"210","East River Ensemble, Inc.","58 Grand Street, 1st Floor","Brooklyn","NY","11211","(718) 387-5179","Theater","Brooklyn Council District #33","Brooklyn Community Board #1","Brooklyn",40.715908,-73.965099,551,3335767,3023900018,"North Side-South Side"
"211","East Winds, Inc.","55 Park Terrace East, Apt. B63","New York","NY","10034","(646) 418-8808","Music","Manhattan Council District #7","Manhattan Community Board #12","Manhattan",40.870401,-73.916644,307,1065004,1022430210,"Marble Hill-Inwood"
"212","Edge Theater Company, Inc.","880 Third Avenue, 16th floor","New York","NY","10022","(212) 350-7244","Theater","Manhattan Council District #4","Manhattan Community Board #6","Manhattan",40.75791,-73.969254,100,1036473,1013080033,"Turtle Bay-East Midtown"
"213","Education Through Music, Inc.","122 East 42nd Street, Ste. 1501","New York","NY","10168","(212) 972-4788","Music","Manhattan Council District #4","Manhattan Community Board #5","Manhattan",40.751601,-73.97645,80,1036152,1012960014,"Murray Hill-Kips Bay"
"214","Educational Alliance, Inc.","197 East Broadway","New York","NY","10002","(212) 780-2300 x324","Visual Arts","Manhattan Council District #1","Manhattan Community Board #3","Manhattan",40.714219,-73.988219,6,1003704,1002850029,"Lower East Side"
"215","Educational Theater of New York, Inc.","228 East 45th Street","New York","NY","10017","(646) 733-7685","Theater","Manhattan Council District #4","Manhattan Community Board #6","Manhattan",40.752355,-73.972266,90,1037578,1013180033,"Turtle Bay-East Midtown"
"216","Either/Or, Inc.","321 East 43rd Street","New York","NY","10017","(646) 331-5895","Music","Manhattan Council District #4","Manhattan Community Board #6","Manhattan",40.750098,-73.970755,88,1038665,1013360010,"Turtle Bay-East Midtown"
"217","Ekmeles, Inc.","69 Bennett Ave, APT 210","New York","NY","10033","(207) 653-9856","Music","Manhattan Council District #10","Manhattan Community Board #12","Manhattan",40.85266,-73.935542,271,1064427,1021807501,"Washington Heights North"
"218","Elaine Kaufman Cultural Center/Lucy Moses School for Music and Dance","129 West 67th Street","New York","NY","10023","(212) 501-3313","Music","Manhattan Council District #6","Manhattan Community Board #7","Manhattan",40.774919,-73.982745,153,1081024,1011390008,"Lincoln Square"
"219","Elder Craftsmen, Inc.","307 Seventh Avenue, Ste. 1401","New York","NY","10001","(212) 319-8128 x10","Visual Arts","Manhattan Council District #3","Manhattan Community Board #5","Manhattan",40.746869,-73.993616,95,1015061,1008030004,"Midtown-Midtown South"
"220","Electronic Music Foundation, Inc.","307 Seventh Ave Room 1402","New York","NY","10001","(518) 434-4110","Music","Manhattan Council District #3","Manhattan Community Board #4","Manhattan",40.746869,-73.993616,95,1015061,1008030004,"Midtown-Midtown South"
"221","Elizabeth Foundation for the Arts","323 West 39th Street, 11th Floor","New York","NY","10018","(212) 563-5855","Visual Arts","Manhattan Council District #3","Manhattan Community Board #4","Manhattan",40.755707,-73.992045,115,1013682,1007637502,"Clinton"
"222","Ellen Beckerman & Company, Inc.","64 Fulton Street, Ste. 403","New York","NY","10038","(212) 346-0020","Theater","Manhattan Council District #1","Manhattan Community Board #1","Manhattan",40.708769,-74.005136,1502,1001176,1000760001,"Battery Park City-Lower Manhattan"
"223","Elmcor Youth & Adult Activities, Inc.","33-16 108 Street","Corona","NY","11368","(718) 651-0096","Music","Queens Council District #21","Queens Community Board #3","Queens",40.757429,-73.860938,381,4042761,4017220012,"North Corona"
"224","Emerging Artists Theatre Company","15 West 28th Street, Third Floor","New York","NY","10001","(212) 247-2429","Theater","Manhattan Council District #3","Manhattan Community Board #4","Manhattan",40.74515,-73.988383,76,1015728,1008300030,"Midtown-Midtown South"
"225","Emmanuel Baptist Church in Brooklyn","279 Lafayette Avenue","Brooklyn","NY","11238","(718) 622-1107","Music","Brooklyn Council District #35","Brooklyn Community Board #2","Brooklyn",40.688279,-73.965287,197,3055373,3019320042,"Clinton Hill"
"226","En Garde Arts, Inc.","27 West 86th Street, #2A","New York, NY","NY","10023","(323) 528-6434","Theater","Manhattan Council District #3","Manhattan Community Board #5","Manhattan",40.785879,-73.970703,173,1031404,1012000015,"Upper West Side"
"227","Enrichment Through the Arts, Inc.","11 Borman Avenue","Staten Island","NY","10314","(718) 982-5678","Theater","Staten Island Council Dist #50","Staten Island Community Brd #2","Staten Island",40.592473,-74.154176,27301,5127458,5020030082,"New Springville-Bloomfield-Travis"
"228","Ensemble 212, Inc.","301 W 45th St","New York","NY","10036","(646) 266-9632","Music","Manhattan Council District #3","Manhattan Community Board #4","Manhattan",40.759351,-73.988814,121,1025011,1010360029,"Clinton"
"229","Ensemble Studio Theatre, Inc.","545 West 52nd Street","New York","NY","10019","(212) 247-4982 x15","Theater","Manhattan Council District #3","Manhattan Community Board #4","Manhattan",40.766642,-73.992538,135,1083290,1010810080,"Clinton"
"230","Epic Theatre Center, Inc.","410 West 42nd Street, #4E1","New York","NY","10036","(212) 239-1770","Theater","Manhattan Council District #6","Manhattan Community Board #7","Manhattan",40.758652,-73.993185,115,1026330,1010510029,"Clinton"
"231","Epiphany Theater Company, Inc.","154 Christopher Street, Ste. 2B","New York","NY","10014","(646) 638-0252","Theater","Manhattan Council District #3","Manhattan Community Board #2","Manhattan",40.73273,-74.008129,69,1010421,1006040033,"West Village"
"232","Ethel's Foundation for the Arts","132 East 43rd Street, #213","New York","NY","10017","(914) 674-0638","Music","Manhattan Council District #4","Manhattan Community Board #6","Manhattan",40.751969,-73.97523,92,1036156,1012970023,"Turtle Bay-East Midtown"
"233","Evangelical Lutheran Church of the Advent","2504 Broadway","New York","NY","10025","(212) 665-2504","Music","Manhattan Council District #6","Manhattan Community Board #7","Manhattan",40.792909,-73.97304,179,1033646,1012410020,"Upper West Side"
"234","Exit Art/The First World, Inc.","475 Tenth Avenue, 1st Floor","New York","NY","10018","(212) 966-7745 x11","Visual Arts","Manhattan Council District #3","Manhattan Community Board #4","Manhattan",40.756154,-73.998018,99,1012493,1007080031,"Hudson Yards-Chelsea-Flatiron-Union Square"
"235","FCBC Community Development Corporation","1912 Adam Clayton Powell Jr. Blvd.","New York","NY","10026","(212) 678-7030","Theater","Manhattan Council District #9","Manhattan Community Board #10","Manhattan",40.802841,-73.952813,218,1055238,1018310033,"Central Harlem South"
"236","FRIGID New York, Inc.","85 East 4th Street","New York","NY","10003","(917) 270-0608","Theater","Manhattan Council District #2","Manhattan Community Board #3","Manhattan",40.726393,-73.989887,38,1006599,1004600044,"East Village"
"237","Fantastic Experimental Latino Theater, Inc.","107 Suffolk Street, Ste. 311","New York","NY","10002","(212) 228-3705","Theater","Manhattan Council District #1","Manhattan Community Board #3","Manhattan",40.718943,-73.986122,1402,1004301,1003530054,"Lower East Side"
"238","Fault Line Theatre, Inc.","520 8th Ave., Suite 318","New York","NY","10018","(646) 801-1085","Theater","Manhattan Council District #3","Manhattan Community Board #5","Manhattan",40.753612,-73.992417,109,1083624,1007860001,"Midtown-Midtown South"
"239","Federation Employment & Guidance Service, Inc.","315 Hudson Street","New York","NY","10013","(212) 366-8032","Theater","Manhattan Council District #3","Manhattan Community Board #2","Manhattan",40.72631,-74.00749,37,1010362,1005970012,"SoHo-TriBeCa-Civic Center-Little Italy"
"240","Feed Your Mind Music","147 Prince Street","New York","NY","11201","(347) 796-1113","Music","Brooklyn Council District #40","Brooklyn Community Board #9","Brooklyn",40.692648,-73.982532,15,3058261,3020620006,"DUMBO-Vinegar Hill-Downtown Brooklyn-Boerum Hill"
"241","Festival of North American Orchestras, Inc.","470 Park Avenue South","New York","NY","10016","(212) 683-6060","Music","Manhattan Council District #2","Manhattan Community Board #5","Manhattan",40.745492,-73.982515,74,1080788,1008610044,"Midtown-Midtown South"
"242","Fiasco Theater LTD","80 Madison Ave","New York","NY","10016","(646) 845-9073","Theater","Manhattan Council District #3","Manhattan Community Board #6","Manhattan",40.744104,-73.985637,74,1016899,1008580014,"Midtown-Midtown South"
"243","Fiji Theatre Company","47 Great Jones Street, Sixth Floor","New York","NY","10012","(212) 529-1557 x202","Theater","Manhattan Council District #1","Manhattan Community Board #2","Manhattan",40.726739,-73.992528,5502,1008483,1005307503,"West Village"
"244","Finland Center Foundation","47 Fifth Avenue","New York","NY","10003","(646) 704-8000","Music","Manhattan Council District #2","Manhattan Community Board #2","Manhattan",40.73435,-73.994808,61,1009274,1005690004,"West Village"
"245","First Baptist Church of Crown Heights, Inc.","450 Eastern Parkway","Brooklyn","NY","11225","(718) 778-1200","Music","Brooklyn Council District #35","Brooklyn Community Board #9","Brooklyn",40.670028,-73.953728,323,3032891,3012670027,"Crown Heights South"
"246","Fluid Motion Theater & Film, Inc.","109 West 27th Street, Ste. 9A","New York","NY","10001","(917) 459-8181","Theater","Manhattan Council District #3","Manhattan Community Board #5","Manhattan",40.745735,-73.991689,95,1015070,1008030029,"Midtown-Midtown South"
"247","Flux Factory","39-31 29th Street","Queens","NY","11101","(718) 707-3362","Visual Arts","Queens Council District #26","Queens Community Board #1","Brooklyn",40.660464,-74.003914,18,NA,NA,"Sunset Park West"
"248","Flying Carpet Theater, Inc.","43-38 47th Street","Sunnyside","NY","11104","(917) 721-7567","Theater","Queens Council District #26","Queens Community Board #2","Queens",40.74413,-73.91756,25301,4448556,4001410027,"Hunters Point-Sunnyside-West Maspeth"
"249","Flying Fig Theater, Inc.","161 Sixth Avenue, 14th Floor","New York","NY","10013","(212) 691-6969 x13","Theater","","Manhattan Community Board #2","Manhattan",40.725677,-74.003976,37,1007822,1005050031,"SoHo-TriBeCa-Civic Center-Little Italy"
"250","Focal Point Press, Ltd.","321 City Island Avenue","Bronx","NY","10464","(718) 885-1403","Visual Arts","Bronx Council District #12","Bronx Community Board #10","Bronx",40.847587,-73.786631,516,2094043,2056310139,"Pelham Bay-Country Club-City Island"
"251","Folksbiene Yiddish Theatre","36 Battery Place","New York","NY","10280","(212) 213-2120","Theater","Manhattan Council District #3","Manhattan Community Board #4","Manhattan",40.705806,-74.018019,31704,1084594,1000160010,"Battery Park City-Lower Manhattan"
"252","Forest Hills Symphony Orchestra","160-08 25th Drive","Flushing","NY","11358","(718) 544-7692","Music","Queens Council District #22","Queens Community Board #6","Queens",40.774149,-73.803558,1059,4110540,4048850008,"Murray Hill"
"253","Forty Greene Avenue Cultural Center, Inc.","54 Greene Avenue","Brooklyn","NY","11238","(718) 783-9794","Theater","Brooklyn Council District #35","Brooklyn Community Board #2","Brooklyn",40.686184,-73.970321,179,3055872,3019580019,"Fort Greene"
"254","Foundation","413 East 120 St","New York","NY","10035","(917) 403-6875","Visual Arts","Manhattan Council District #8","Manhattan Community Board #11","Manhattan",40.798371,-73.932987,192,1054888,1018080008,"East Harlem North"
"255","Foundry Theatre, Inc.","140-142 Second Avenue, Ste. 405","New York","NY","10003","(212) 777-1444","Theater","Manhattan Council District #2","Manhattan Community Board #3","Manhattan",40.728956,-73.987401,38,1006362,1004500006,"East Village"
"256","Freestyle Repertory Theatre","120 West 86th Street, Apt. 1A","New York","NY","10024","(212) 362-4978","Theater","Manhattan Council District #6","Manhattan Community Board #7","Manhattan",40.786769,-73.972866,169,1032176,1012160140,"Upper West Side"
"257","Fresh Squeezed Opera Company","98 Thayer Street #3K","New York","NY","10040","(919) 272-7645","Music","Manhattan Council District #10","Manhattan Community Board #12","Manhattan",40.864554,-73.927783,287,1064248,1021750170,"Washington Heights North"
"258","Frick Collection","1 East 70th Street","New York","NY","10021","(212) 991-5770","Museum","Manhattan Council District #4","Manhattan Community Board #8","Manhattan",40.771054,-73.967749,130,1081212,1013850001,"Upper East Side-Carnegie Hill"
"259","Friends of Alice Austen House, Inc.","2 Hylan Boulevard","Staten Island","NY","10305","(718) 816-4506 x12","Museum","Staten Island Council Dist #49","Staten Island Community Brd #1","Staten Island",40.615561,-74.06322,6,5042188,5028300049,"Stapleton-Rosebank"
"260","Friends of City Reliquary Incorporated","370 Metropolitan Avenue","New York","NY","11211","(718) 782-4842","Museum","Brooklyn Council District #34","Brooklyn Community Board #1","Brooklyn",40.714077,-73.955711,519,3062502,3023690011,"North Side-South Side"
"261","Friends of the New York City Fire Department Collection, Inc.","278 Spring Street","New York","NY","10013","(212) 691-1303 x11","Museum","Manhattan Council District #3","Manhattan Community Board #2","Manhattan",40.725767,-74.006851,37,1009739,1005790011,"SoHo-TriBeCa-Civic Center-Little Italy"
"262","Friends of the New York Transit Museum","130 Livingston Street, 10th Floor","Brooklyn","NY","11201","(718) 694-5102","Museum","Brooklyn Council District #33","Brooklyn Community Board #2","Brooklyn",40.690782,-73.988753,37,3319419,3001630001,"DUMBO-Vinegar Hill-Downtown Brooklyn-Boerum Hill"
"263","Frog & Peach Theatre Company, Inc.","840 West End Avenue, Apt. B1","New York","NY","10025","(212) 953-1104","Theater","Manhattan Council District #6","Manhattan Community Board #7","Manhattan",40.798535,-73.970802,187,1056498,1018730001,"Upper West Side"
"264","Fulton Art Fair, Inc.","57 Putnam Avenue","Brooklyn","NY","11238","(718) 493-3421","Visual Arts","Brooklyn Council District #36","Brooklyn Community Board #8","Brooklyn",40.682901,-73.959925,231,3056884,3019830070,"Clinton Hill"
"265","Gallery Players, Inc.","199 14th Street","Brooklyn","NY","11215","(212) 691-3020","Theater","Brooklyn Council District #39","","Brooklyn",40.666966,-73.990448,141,3023430,3010340068,"Park Slope-Gowanus"
"266","Gingold Theatrical Group, Inc.","520 8th Avenue","New York","NY","10018","(212) 355-7823","Theater","Manhattan Council District #3","Manhattan Community Board #5","Manhattan",40.753612,-73.992417,109,1083624,1007860001,"Midtown-Midtown South"
"267","Girl Be Heard Institute","80 East 11th St, Suite 301A","New York, NY","NY","10003","(857) 277-2418","Theater","Manhattan Council District #2","Manhattan Community Board #2","Brooklyn",40.646843,-73.969294,1522,3116362,3050710090,"Flatbush"
"268","Glass Farm Ensemble, Inc.","109 West 27 Street, Apt. 5D","New York","NY","10001","(212) 244-6422","Music","Manhattan Council District #3","Manhattan Community Board #4","Manhattan",40.745735,-73.991689,95,1015070,1008030029,"Midtown-Midtown South"
"269","Glass Menagerie A Downtown Community Chorus, Inc.","201 East 17th Street, #21C","New York","NY","10003","(917) 319-4661","Music","Manhattan Council District #2","Manhattan Community Board #2","Manhattan",40.735041,-73.985375,48,1019551,1008980001,"Gramercy"
"270","Global Artists Coalition Incorporated","323 W. 138TH Street","New York","NY","10030","(917) 855-7772","Museum","Manhattan Council District #10","Manhattan Community Board #10","Manhattan",40.81884,-73.946103,22102,1060657,1020410036,"Central Harlem North-Polo Grounds"
"271","Godwin Ternbach Museum","Queens College, 405 Klapper Hall","Flushing","NY","11367","(718) 997-3920","Museum","Queens Council District #24","Queens Community Board #8","Queens",40.736392,-73.818882,809,4000000,4065170001,"Kew Gardens Hills"
"272","Golden Fleece Theatre Company, Ltd.","70A Greenwich Avenue, Apt. 256","New York","NY","10011","(212) 691-6105","Music","Manhattan Council District #3","Manhattan Community Board #2","Manhattan",40.736395,-74.000985,71,1010573,1006067501,"West Village"
"273","Goliard Concerts, Inc.","30-87 46th Street","Astoria","NY","11103","(212) 923-1711","Music","Queens Council District #22","Queens Community Board #1","Queens",40.759453,-73.911956,151,4013273,4007280010,"Astoria"
"274","Gorilla Repertory Theatre Company, Inc.","363 Tompkins Avenue, Apt. 3","Brooklyn","NY","11216","(212) 252-5258","Theater","Brooklyn Council District #36","Brooklyn Community Board #3","Brooklyn",40.685216,-73.944275,267,3051711,3018250004,"Bedford"
"275","Gotham Early Music Scene, Inc.","340 Riverside Drive, Apt. 1A","New York","NY","10025","(212) 866-0468","Music","Manhattan Council District #9","Manhattan Community Board #7","Manhattan",40.8023,-73.969728,195,1057257,1018920001,"Morningside Heights"
"276","Gotham Stage Company, Inc.","288 W. 92nd Street","New York","NY","10025","(212) 579-0321","Theater","Manhattan Council District #6","Manhattan Community Board #7","Manhattan",40.792544,-73.974738,179,1033601,1012390056,"Upper West Side"
"277","Grace Chorale of Brooklyn","254 Hicks Street","Brooklyn","NY","11201","(212) 755-5510 x368","Music","Brooklyn Council District #33","Brooklyn Community Board #2","Brooklyn",40.693706,-73.996596,301,3329460,3002520028,"Brooklyn Heights-Cobble Hill"
"278","Gramercy Brass of New York, Inc.","111 East 19th Street","New York","NY","10003","(212) 229-7607","Music","Manhattan Council District #2","Manhattan Community Board #6","Manhattan",40.737333,-73.98719,50,1017910,1008750011,"Gramercy"
"279","Great Small Works, Inc.","315 West 86th Street, Apt. 4E","New York","NY","10024","(212) 787-8457","Theater","Manhattan Council District #6","Manhattan Community Board #7","Manhattan",40.789163,-73.978498,175,1033938,1012480022,"Upper West Side"
"280","Greater Chinatown Community Association","105 Mosco Street","New York","NY","10013","(212) 374-1311","Music","Manhattan Council District #1","Manhattan Community Board #3","Manhattan",40.714459,-73.999347,29,1001820,1001640044,"Chinatown"
"281","Greater Ridgewood Historical Society","1820 Flushing Avenue","Ridgewood","NY","11385","(718) 765-7067","Museum","Brooklyn Council District #34","Brooklyn Community Board #5","Queens",40.710926,-73.920356,539,4081481,4034120001,"Ridgewood"
"282","Greater Ridgewood Youth Council, Inc.","59-03 Summerfield Street","Ridgewood","NY","11385","(718) 456-5437","Visual Arts","Queens Council District #30","Queens Community Board #5","Queens",40.699463,-73.897855,557,4437841,4035880001,"Ridgewood"
"283","Greek Cultural Center, Inc.","27-18 Hoyt Avenue South","Astoria","NY","11102","(718) 726-7329","Theater","Queens Council District #22","Queens Community Board #1","Queens",40.771931,-73.919901,69,4540506,4008397503,"Old Astoria"
"284","Ground UP Productions","72 Barrow St. #2N","New York","NY","10014","(646) 479-4997","Theater","Manhattan Council District #3","Manhattan Community Board #4","Manhattan",40.731619,-74.005975,73,1083518,1005850001,"West Village"
"285","Groundswell Community Mural Project","540 President St. Ste 1A","Brooklyn","NY","11215","(718) 254-9782","Visual Arts","Brooklyn Council District #33","Brooklyn Community Board #6","Brooklyn",40.677354,-73.984973,119,3000000,3004480013,"Park Slope-Gowanus"
"286","HB Playwrights Foundation, Inc.","122 Bank Street","New York","NY","10014","(212) 989-6540","Theater","Manhattan Council District #3","Manhattan Community Board #2","Manhattan",40.73629,-74.007556,75,1083548,1006340014,"West Village"
"287","Hands On Sign Interpreted Performances, Inc.","159-00 Riverside Drive West, Ste. 7F","New York","NY","10032","(212) 740-3087","Theater","Manhattan Council District #7","Manhattan Community Board #12","Manhattan",40.837414,-73.947996,247,1063300,1021350060,"Washington Heights South"
"288","Harbor Lights Theater Company, Inc.","38 Westervelt Avenue","Staten Island","NY","10301","(718) 273-7516","Theater","Staten Island Council Dist #49","Staten Island Community Brd #1","Staten Island",40.646724,-74.086738,7,5001178,5000510171,"West New Brighton-New Brighton-St. George"
"289","Harlem Artists' Development League Especially For You","229 West 135 Street","New York","NY","10030","(917) 334-8694","Theater","Manhattan Council District #9","Manhattan Community Board #10","Manhattan",40.815754,-73.944743,228,1058880,1019410014,"Central Harlem North-Polo Grounds"
"290","Harlem Chamber Players, Inc.","191 Claremont Avenue #25","New York","NY","10027","(212) 866-1492","Music","Manhattan Council District #9","Manhattan Community Board #9","Manhattan",40.814874,-73.960206,211,1059874,1019940069,"Morningside Heights"
"291","Harlem Opera Theater, Inc.","425 West 144th Street","New York","NY","10031","(212) 234-6767","Music","Manhattan Council District #9","Manhattan Community Board #7","Manhattan",40.823821,-73.94633,227,1084160,1020500037,"Hamilton Heights"
"292","Harmonia Opera Company, Inc.","2109 Broadway","New York","NY","10023","(212) 870-1500","Music","Manhattan Council District #6","Manhattan Community Board #7","Manhattan",40.780408,-73.982076,159,1030544,1011657503,"Lincoln Square"
"293","Harmonie Ensemble, Inc.","820 West End Avenue, Ste. 13B","New York","NY","10025","(212) 222-6684","Music","Manhattan Council District #6","Manhattan Community Board #7","Manhattan",40.797662,-73.971438,187,1056468,1018710061,"Upper West Side"
"294","Harmony Program, Inc.","535 East 80th Street","New York","NY","10075","(212) 463-7455","Music","Manhattan Council District #5","Manhattan Community Board #8","Manhattan",40.771681,-73.948986,136,1050871,1015777504,"Yorkville"
"295","Harpsichord Unlimited","215 W 98th St., Suite 2A","New York","NY","10025","(212) 280-1086","Music","Manhattan Council District #8","Manhattan Community Board #7","Manhattan",40.79568,-73.970146,187,1082691,1018707502,"Upper West Side"
"296","Hebrew Home for the Aged at Riverdale","5901 Palisade Avenue","New York","NY","10471","(718) 581-1330","Visual Arts","Bronx Council District #11","Bronx Community Board #8","Bronx",40.908233,-73.908974,309,2116428,2059330224,"North Riverdale-Fieldston-Riverdale"
"297","Herbert Berghof Studio","120 Bank Street","New York","NY","10014","(212) 675-2370","Theater","Manhattan Council District #3","Manhattan Community Board #2","Manhattan",40.736299,-74.007495,75,1011899,1006340015,"West Village"
"298","Hetrick-Martin Institute, Inc.","2 Astor Place","New York","NY","10003","(212) 674-2400","Visual Arts","Manhattan Council District #2","Manhattan Community Board #3","Manhattan",40.730038,-73.992632,57,1080092,1005450026,"West Village"
"299","Highbridge Voices Corporation","1360 Merriam Avenue","Bronx","NY","10452","(718) 293-8759 x13","Music","Bronx Council District #16","Bronx Community Board #4","Bronx",40.84195,-73.925346,201,2003558,2025350001,"Highbridge"
"300","Highly Over Violent Records","825 Melrose Ave, Bronx, NY Apt 7E","New York City","NY","10451","(646) 360-8399","Music","Bronx Council District #17","Bronx Community Board #1","Bronx",40.82319,-73.914387,141,2114448,2024060021,"Morrisania-Melrose"
"301","Hip to Hip Theatre Company","52-40 39th Drive","Woodside","NY","11377","(718) 729-8567","Theater","Queens Council District #26","Queens Community Board #2","Queens",40.747142,-73.910905,251,4431300,4012380025,"Woodside"
"302","Hispanic Society of America","613 West 155th Street","New York","NY","10032","(212) 926-2234","Museum","Manhattan Council District #7","","Manhattan",40.833063,-73.946478,241,1081864,1021340008,"Washington Heights South"
"303","Historic House Trust of New York City","830 Fifth Avenue","New York","NY","10065","(212) 360-8282","Museum","Manhattan Council District #4","Manhattan Community Board #8","Manhattan",40.767711,-73.970516,143,1083811,1011110001,"park-cemetery-etc-Manhattan"
"304","Honest Accomplice Theatre Inc.","592 16th Street","Brooklyn","NY","11218","(646) 591-7051","Theater","Brooklyn Council District #39","Brooklyn Community Board #7","Brooklyn",40.657708,-73.974818,171,3121940,3052580020,"Windsor Terrace"
"305","Horizon Concerts, Inc.","420 Lexington Ave., Suite 300","New York","NY","10170","(212) 297-6195","Music","Manhattan Council District #3","Manhattan Community Board #6","Manhattan",40.752262,-73.975464,92,1035385,1012807501,"Turtle Bay-East Midtown"
"306","Horizon Theatre Rep","117 East 37th St","New York","NY","10016","(646) 781-9067","Theater","Manhattan Council District #3","Manhattan Community Board #6","Manhattan",40.748615,-73.979053,80,1019086,1008930014,"Murray Hill-Kips Bay"
"307","Hotel Savant Theatre Company, Inc.","2350 Broadway, #1207","New York","NY","10024","(646) 221-4021","Theater","Manhattan Council District #3","Manhattan Community Board #5","Manhattan",40.788007,-73.976747,171,1033133,1012330016,"Upper West Side"
"308","Hourglass Group, Ltd.","520 Eighth Avenue, Suite 317a","New York","NY","10018","(212) 439-8122 x2","Theater","Manhattan Council District #3","Manhattan Community Board #5","Manhattan",40.753612,-73.992417,109,1083624,1007860001,"Midtown-Midtown South"
"309","ID Studio Theater Performance and Research Center","531 West 112th Street","New York","NY","10025","(917) 658-5187","Theater","Manhattan Council District #10","Manhattan Community Board #12","Manhattan",40.804684,-73.963915,199,1056992,1018840011,"Morningside Heights"
"310","IRT Theater, Inc.","154 Christopher Street, Suite 3B","New York","NY","10014","(212) 206-6875","Theater","Manhattan Council District #2","Manhattan Community Board #2","Manhattan",40.73273,-74.008129,69,1010421,1006040033,"West Village"
"311","IlluminArt Productions","29 Putters Court","Staten Island","NY","10301","(248) 705-0966","Theater","Staten Island Council Dist #49","Staten Island Community Brd #1","Staten Island",40.620227,-74.107855,59,5127441,5002580177,"New Brighton-Silver Lake"
"312","Immaterial Incorporated","181 Wyckoff Street","Brooklyn","NY","11217","(718) 222-8434","Visual Arts","Brooklyn Council District #38","Brooklyn Community Board #2","Brooklyn",40.68465,-73.987207,71,3005872,3003860050,"DUMBO-Vinegar Hill-Downtown Brooklyn-Boerum Hill"
"313","Impact Theatre, Inc.","210 West 101st Street, #2B","New York","NY","10025","(212) 662-4108","Theater","Manhattan Council District #8","Manhattan Community Board #7","Manhattan",40.797538,-73.968755,187,1056485,1018720043,"Upper West Side"
"314","Independent Curators International","401 Broadway","New York","NY","10013","(212) 254-8200","Visual Arts","Manhattan Council District #1","Manhattan Community Board #1","Manhattan",40.71871,-74.002482,33,1002310,1001940042,"SoHo-TriBeCa-Civic Center-Little Italy"
"315","Indochina Sino-American Senior Citizen Center, Inc.","170 Forsyth St, 2nd Fl","New York","NY","10002","(212) 226-0317","Visual Arts","Manhattan Council District #1","Manhattan Community Board #3","Manhattan",40.721238,-73.991385,3601,1075911,1004217502,"Chinatown"
"316","Inoue Chamber Ensemble, Inc.","440 Riverside Drive, Suite 126","New York","NY","10027","(212) 864-6459","Music","Manhattan Council District #9","Manhattan Community Board #10","Manhattan",40.808999,-73.965686,205,1059817,1019900001,"Morningside Heights"
"317","Instituto Arte Teatral Internacional, Inc.","20 West 72nd Street, Ste. 808","New York","NY","10023","(212) 505-6757","Theater","Manhattan Council District #2","Manhattan Community Board #3","Manhattan",40.776727,-73.977188,157,1028620,1011240046,"Lincoln Square"
"318","InterSchool Orchestras of New York, Inc.","121 West 27th Street","New York","NY","10001","(212) 410-0370","Music","Manhattan Council District #5","Manhattan Community Board #8","Manhattan",40.745831,-73.991916,95,1015067,1008030021,"Midtown-Midtown South"
"319","Interactive Drama for Education and Awareness in Schools, Inc.","98 4th Street, Ste. 305","Brooklyn","NY","11231","(718) 387-5055","Theater","Brooklyn Council District #39","Brooklyn Community Board #6","Brooklyn",40.676625,-73.992966,77,3008082,3004710125,"Carroll Gardens-Columbia Street-Red Hook"
"320","International Center of Photography","1114 Avenue of the Americas","New York","NY","10036","(212) 857-0012","Museum","Manhattan Council District #3","Manhattan Community Board #5","Manhattan",40.755352,-73.983732,96,1034196,1012580009,"Midtown-Midtown South"
"321","International Contemporary Ensemble Foundation, Inc.","4306 Third Avenue, 4th floor","Brooklyn","NY","11232","(347) 284-6423","Music","Brooklyn Council District #38","Brooklyn Community Board #7","Brooklyn",40.651501,-74.010631,2,3010898,3007270041,"Sunset Park West"
"322","International Print Center New York","526 West 26th Street, Room 824","New York","NY","10001","(212) 989-5090","Visual Arts","Manhattan Council District #3","Manhattan Community Board #4","Manhattan",40.750094,-74.003999,99,1012386,1006970047,"Hudson Yards-Chelsea-Flatiron-Union Square"
"323","International Studio and Curatorial Program","1040 Metropolitan Avenue, Third Floor","Brooklyn","NY","11211","(212) 279-1173","Visual Arts","Brooklyn Council District #34","Brooklyn Community Board #1","Brooklyn",40.714429,-73.934803,449,3338341,3029250001,"East Williamsburg"
"324","Irish Repertory Theatre Company, Inc.","132 West 22nd Street","New York","NY","10011","(212) 255-0270 x13","Theater","Manhattan Council District #3","Manhattan Community Board #4","Manhattan",40.74268,-73.99437,87,1014777,1007977503,"Hudson Yards-Chelsea-Flatiron-Union Square"
"325","Irondale Productions, Inc.","85 S. Oxford St","Brooklyn","NY","11217","(718) 488-9233","Theater","Brooklyn Council District #35","Brooklyn Community Board #2","Brooklyn",40.686918,-73.973563,181,3059350,3021180011,"Fort Greene"
"326","Isamu Noguchi Foundation and Garden Museum","32-37 Vernon Boulevard","Long Island City","NY","11106","(718) 204-7088 x201","Museum","Queens Council District #26","Queens Community Board #1","Queens",40.767243,-73.937405,45,4307192,4003147501,"Astoria"
"327","Issue Project Room, Inc.","22 Boerum Place","Brooklyn","NY","11201","(718) 812-1129","Music","Brooklyn Council District #38","Brooklyn Community Board #6","Brooklyn",40.690903,-73.98938,9,3002642,3002697501,"Brooklyn Heights-Cobble Hill"
"328","Italian American Museum","155 Mulberry Street","New York","NY","10013","(212) 965-9000","Museum","Manhattan Council District #1","Manhattan Community Board #2","Manhattan",40.71915,-73.997395,41,1003076,1002360020,"SoHo-TriBeCa-Civic Center-Little Italy"
"329","JACK Music Inc","809 W 181st St #224","New York","NY","10033","(917) 574-3447","Music","Manhattan Council District #10","Manhattan Community Board #12","Manhattan",40.85104,-73.938717,273,1064336,1021790090,"Washington Heights North"
"330","Jacques Marchais Center of Tibetan Arts, Inc.","338 Lighthouse Avenue","Staten Island","NY","10306","(718) 987-3500 x3","Museum","Staten Island Council Dist #50","Staten Island Community Brd #2","Staten Island",40.576285,-74.138645,279,5095332,5022750004,"Todt Hill-Emerson Hill-Heartland Village-Lighthouse Hill"
"331","Japan Society, Inc.","333 East 47th Street","New York","NY","10017","(212) 715-1212","Museum","Manhattan Council District #4","Manhattan Community Board #6","Manhattan",40.752645,-73.969054,90,1038908,1013400016,"Turtle Bay-East Midtown"
"332","Jewish Community Council of Pelham Parkway, Inc.","2157 Holland Avenue","Bronx","NY","10462","(718) 792-4744","Music","Bronx Council District #13","Bronx Community Board #11","Bronx",40.855218,-73.86574,22403,2049409,2043190045,"Pelham Parkway"
"333","Jewish Community Council of the RockawayPeninsula","1525 Central Avenue","Far Rockaway","NY","11691","(718) 327-7755 x11","Music","Queens Council District #31","Queens Community Board #14","Queens",40.605645,-73.751391,103202,4298051,4155450023,"Far Rockaway-Bayswater"
"334","Jewish Museum","1109 Fifth Avenue","New York","NY","10128","(212) 423-3215","Museum","Manhattan Council District #4","Manhattan Community Board #8","Manhattan",40.785298,-73.957263,16001,1047052,1015040001,"Upper East Side-Carnegie Hill"
"335","Joseph Gheraldi Playwright's Theatre","252 Reid Avenue","Staten Island","NY","10305","(718) 351-6147","Theater","Staten Island Council Dist #50","Staten Island Community Brd #2","Staten Island",40.594306,-74.087239,9601,5049030,5033250046,"Old Town-Dongan Hills-South Beach"
"336","Juneteenth Festival, Inc.","605 Water Street, Apt. 21B","New York","NY","10002","(212) 964-1904","Theater","Manhattan Council District #1","Manhattan Community Board #3","Manhattan",40.711249,-73.98445,202,1003141,1002440019,"Lower East Side"
"337","Jupiter Symphony of New York, Inc.","155 West 68th Street, Apt. 319","New York","NY","10023","(212) 799-1259","Music","Manhattan Council District #6","Manhattan Community Board #7","Manhattan",40.775704,-73.982659,153,1028950,1011407501,"Lincoln Square"
"338","Kalavant Center for Music and Dance","326 East 11th Street, Ste. 2","New York","NY","10003","(212) 475-2348","Music","Manhattan Council District #2","Manhattan Community Board #3","Manhattan",40.729812,-73.985063,40,1006442,1004520021,"East Village"
"339","Keen Theater Company, Inc.","520 8th Avenue, Ste. 328","New York","NY","10018","(212) 216-0963","Theater","Manhattan Council District #3","Manhattan Community Board #4","Manhattan",40.753612,-73.992417,109,1083624,1007860001,"Midtown-Midtown South"
"340","Kehila Kedosha Janina Synagogue and Museum","280 Broome Street","New York","NY","10002","(212) 431-1619","Museum","Manhattan Council District #1","","Manhattan",40.718466,-73.991328,18,1005465,1004140027,"Chinatown"
"341","Kenkeleba House, New York","214 East Second Street","New York","NY","10009","(212) 674-3939","Visual Arts","Manhattan Council District #2","Manhattan Community Board #3","Manhattan",40.721794,-73.982889,2202,1004609,1003850063,"Lower East Side"
"342","Kentler International Drawing Space, Inc.","353 Van Brunt Street","Brooklyn","NY","11231","(718) 875-2098","Visual Arts","Brooklyn Council District #38","Brooklyn Community Board #6","Brooklyn",40.677105,-74.013177,53,3319434,3005760004,"Carroll Gardens-Columbia Street-Red Hook"
"343","Keys to the Future Festival, Inc.","200 West 20th Street, Ste. 502","New York","NY","10011","(212) 242-2691","Music","Manhattan Council District #3","Manhattan Community Board #4","Manhattan",40.7424,-73.997441,87,1068149,1007697503,"Hudson Yards-Chelsea-Flatiron-Union Square"
"344","King Manor Association of Long Island, Inc.","90-04 161 Street, Ste. 704","Jamaica","NY","11432","(718) 206-0545","Museum","Queens Council District #24","Queens Community Board #12","Queens",40.705199,-73.799278,44601,4208850,4097570023,"Jamaica"
"345","Kings County Shakespeare Company, Inc.","138 South Oxford Street, #1C","Brooklyn","NY","11217","(718) 398-2546","Theater","Brooklyn Council District #33","Brooklyn Community Board #2","Brooklyn",40.685073,-73.973221,179,3000000,3020040048,"Fort Greene"
"346","Kleinman Holocaust Education Center Inc","5923 Strickland Avenue","Brooklyn","NY","11234","(718) 759-6200","Museum","Brooklyn Council District #46","Brooklyn Community Board #18","Brooklyn",40.607938,-73.915358,698,3391939,3084707501,"Georgetown-Marine Park-Bergen Beach-Mill Basin"
"347","Korea Society","350 Madison Avenue, 24th Floor","New York","NY","10017","(212) 759-7525","Visual Arts","Manhattan Council District #4","Manhattan Community Board #6","Manhattan",40.754374,-73.978145,94,1035377,1012790057,"Midtown-Midtown South"
"348","Korean Traditional Marching Band, Inc.","45-19 162 Street","Flushing","NY","11358","(646) 808-7272","Music","Queens Council District #20","Queens Community Board #7","Queens",40.755665,-73.804616,1191,4123255,4054410029,"East Flushing"
"349","LAByrinth, Inc.","155 Bank Street","New York","NY","10014","(212) 513-1018","Theater","Manhattan Council District #3","Manhattan Community Board #4","Manhattan",40.736095,-74.009205,79,1012047,1006390001,"West Village"
"350","La Mama Experimental Theater Club, Inc.","74A East 4th Street","New York","NY","10003","(212) 254-6468","Theater","Manhattan Council District #2","Manhattan Community Board #3","Manhattan",40.726494,-73.990169,38,NA,NA,"East Village"
"351","Lark Theatre Company","311 West 43rd Street","New York","NY","10036","(212) 246-2676 x23","Theater","Manhattan Council District #6","Manhattan Community Board #4","Manhattan",40.75818,-73.989922,121,1024965,1010340022,"Clinton"
"352","Latin American Theatre Ensemble Inc.","350 West 51st Street,  Apt. 13-D","New York","NY","10019","(212) 397-3262","Theater","Manhattan Council District #8","Manhattan Community Board #11","Manhattan",40.76374,-73.987632,133,1025183,1010410050,"Clinton"
"353","Latino International Theater Festival of New York, Inc.","142 East 27th Street, Ste. 1A","New York","NY","10016","(212) 695-4010","Theater","Manhattan Council District #2","Manhattan Community Board #6","Manhattan",40.74182,-73.982447,68,1018149,1008820056,"Gramercy"
"354","League of American Theatres and Producers, Inc.","226 West 47th Street, 6th floor","New York","NY","10036","(212) 703-0222","Theater","Manhattan Council District #3","Manhattan Community Board #5","Manhattan",40.759713,-73.985854,125,1024743,1010180044,"Midtown-Midtown South"
"355","League of Composers","34-29 80th Street","Jackson Heights","NY","11372","(718) 622-3005","Music","Brooklyn Council District #33","Brooklyn Community Board #6","Brooklyn",40.630333,-74.038459,44,NA,NA,"Bay Ridge"
"356","League of Professional Theatre Women","520 8th Avenue","New York","NY","10018","(888) 297-3117","Theater","Manhattan Council District #3","Manhattan Community Board #5","Manhattan",40.753612,-73.992417,109,1083624,1007860001,"Midtown-Midtown South"
"357","Learning Leaders, Inc.","80 Maiden Lane, 11th Floor","New York","NY","10038","(212) 213-3370 x530","Visual Arts","Manhattan Council District #1","Manhattan Community Board #1","Manhattan",40.707116,-74.007329,7,1001015,1000420031,"Battery Park City-Lower Manhattan"
"358","Lehman College Art Gallery","250 Bedford Park Boulevard West","Bronx","NY","10468","(718) 960-8731","Visual Arts","Bronx Council District #11","Bronx Community Board #7","Bronx",40.875028,-73.89286,409,2097309,2032470165,"Van Cortlandt Village"
"359","Lesbian & Gay Big Apple Corps","332 Bleecker Street","New York","NY","10014","(212) 591-2886","Music","Manhattan Council District #3","Manhattan Community Board #2","Manhattan",40.733529,-74.004352,73,1011145,1006190033,"West Village"
"360","Leslie-Lohman Museum of Gay and Lesbian Art","26 Wooster Street","New York","NY","10013","(212) 431-2609","Museum","Manhattan Council District #1","Manhattan Community Board #2","Manhattan",40.721705,-74.003204,47,1077455,1002290020,"SoHo-TriBeCa-Civic Center-Little Italy"
"361","Letter of Marque Theater, Incorporated","172 5th Ave No. 191","Brooklyn","NY","11217","(718) 246-2411","Theater","Brooklyn Council District #39","Brooklyn Community Board #6","Brooklyn",40.677501,-73.979731,131,3019561,3009490046,"Park Slope-Gowanus"
"362","Leviathan Lab, Inc.","413 West 50th Street","New York","NY","10019","(347) 581-3047","Theater","Manhattan Council District #3","Manhattan Community Board #4","Manhattan",40.763776,-73.989611,133,1079122,1010600024,"Clinton"
"363","Lewis Howard Latimer Fund, Inc.","34-41 137th Street","Flushing","NY","11354","(718) 961-8585","Museum","Queens Council District #25","Queens Community Board #7","Queens",40.765923,-73.829621,88901,4538071,4049530001,"Flushing"
"364","Lighthouse International","250 West 64th Street","New York","NY","10023","(212) 821-9374","Music","Manhattan Council District #4","Manhattan Community Board #8","Manhattan",40.774338,-73.987266,151,1030337,0,"Lincoln Square"
"365","Lincoln Square District Management Association, Inc.","1841 Broadway, Ste. 1112","New York","NY","10023","(212) 581-3774","Music","Manhattan Council District #6","Manhattan Community Board #7","Manhattan",40.769158,-73.982429,145,1027189,1011130018,"Lincoln Square"
"366","Lindsay's Theatre","161 Sixth Avenue, 14th Floor","New York","NY","10013","(212) 691-6969","Theater","","Manhattan Community Board #2","Manhattan",40.725677,-74.003976,37,1007822,1005050031,"SoHo-TriBeCa-Civic Center-Little Italy"
"367","Lit Fund Incorporated","2348 Crescent Street","Astoria","NY","11105","(917) 626-1369","Theater","Queens Council District #22","Queens Community Board #1","Queens",40.776022,-73.91782,97,4018813,4008650057,"Steinway"
"368","Little Orchestra Society/Orpheon, Inc.","330 West 42nd Street, 12th Floor","New York","NY","10036","(212) 971-9500 x119","Music","Manhattan Council District #3","Manhattan Community Board #4","Manhattan",40.757661,-73.990832,115,1024926,1010320048,"Clinton"
"369","Live Source Inc.","138 S Oxford St","Brooklyn","NY","11217","(562) 665-8890","Theater","Brooklyn Council District #36","Brooklyn Community Board #3","Brooklyn",40.685073,-73.973221,179,3000000,3020040048,"Fort Greene"
"370","Living Image Arts, Inc.","1072 Lorimer Street","Brooklyn","NY","11222","(718) 389-2151","Theater","Brooklyn Council District #33","Brooklyn Community Board #1","Brooklyn",40.727372,-73.953851,561,3065314,3025960008,"Greenpoint"
"371","Living Theatre, Inc.","21 Clinton Street","New York","NY","10002","(212) 397-9307","Theater","Manhattan Council District #1","Manhattan Community Board #3","Manhattan",40.720683,-73.984253,3001,1088336,1003500026,"Chinatown"
"372","Loadbang Inc.","69 Bennett Ave.","NY","NY","10033","(412) 680-0974","Music","Manhattan Council District #10","Manhattan Community Board #12","Manhattan",40.85266,-73.935542,271,1064427,1021807501,"Washington Heights North"
"373","Local 802 Senior Musicians Association","322 West 48th Street","New York","NY","10036","(212) 245-4802 x228","Music","Manhattan Council District #4","Manhattan Community Board #3","Manhattan",40.761399,-73.987896,127,1025108,1010380043,"Clinton"
"374","Location One, Inc.","26 Greene Street","New York","NY","10013","(212) 334-3347","Visual Arts","Manhattan Council District #1","Manhattan Community Board #2","Manhattan",40.721172,-74.002576,47,1002990,1002307503,"SoHo-TriBeCa-Civic Center-Little Italy"
"375","Loco7 Dance Puppet Theatre Company Incorporated","69 East 4th Street, apt 4c","New York","NY","10003","(646) 642-5990","Theater","Manhattan Council District #2","Manhattan Community Board #3","Manhattan",40.726634,-73.99045,38,1077982,1004600052,"East Village"
"376","LonGar Ebony Ensemble, Ltd.","119 West 119th Street","New York","NY","10026","(212) 749-5500 x2128655522","Music","Manhattan Council District #9","Manhattan Community Board #10","Manhattan",40.80431,-73.949087,220,1057550,1019040022,"Central Harlem South"
"377","Long Island String Quartet","1434 155th Street","Whitestone","NY","11357","(631) 421-4635","Music","Queens Council District #19","Queens Community Board #11","Queens",40.788512,-73.806795,991,4103801,4045610058,"Whitestone"
"378","Look & Listen, Inc.","34-29 80th Street","Jackson Heights","NY","11372","(718) 622-3005","Music","Brooklyn Council District #33","Brooklyn Community Board #6","Brooklyn",40.630333,-74.038459,44,NA,NA,"Bay Ridge"
"379","Looking Glass Theatre, Inc.","422 West 57th Street","New York","NY","10019","(212) 307-9467","Theater","Manhattan Council District #6","Manhattan Community Board #5","Manhattan",40.768277,-73.986592,139,1080955,1010660043,"Clinton"
"380","Lot Radio, Inc.","17 Nassau Ave","Brooklyn","NY","11222","(347) 446-6553","Music","Brooklyn Council District #33","Brooklyn Community Board #1","Brooklyn",40.722722,-73.953966,569,3065937,3026400001,"Greenpoint"
"381","Louis Armstrong House","34-56 107th Street","Corona","NY","11368","(718) 997-3920","Museum","Queens Council District #21","Queens Community Board #3","Queens",40.754932,-73.861398,379,4043494,4017480036,"North Corona"
"382","Lower East Side Community Music Workshop, Inc.","95 Avenue B, 1st floor","New York","NY","10009","(212) 353-1843","Music","Manhattan Council District #2","Manhattan Community Board #3","Manhattan",40.724629,-73.981525,2602,1004669,1003890002,"Lower East Side"
"383","Lower East Side Printshop, Inc.","306 West 37th Street, 6th floor","New York","NY","10018","(212) 673-5390 x14","Visual Arts","Manhattan Council District #3","Manhattan Community Board #4","Manhattan",40.754318,-73.99263,111,1013596,1007600032,"Hudson Yards-Chelsea-Flatiron-Union Square"
"384","Lower East Side Tenement Museum","103 Orchard Street","New York","NY","10002","(212) 431-0233 x222","Museum","Manhattan Council District #1","Manhattan Community Board #3","Manhattan",40.718592,-73.990007,18,1005471,1004140051,"Chinatown"
"385","Lyric Chamber Music Society of New York, Inc.","20 West 64th Street, Apt. 27H","New York","NY","10023","(212) 496-9927","Music","Manhattan Council District #6","Manhattan Community Board #7","Manhattan",40.77143,-73.980335,149,1027472,1011167501,"Lincoln Square"
"386","MA-YI Filipino Theatre Ensemble, Inc.","520 Eighth Avenue, Suite #309","New York","NY","10018","(212) 971-4862","Theater","Manhattan Council District #3","Manhattan Community Board #5","Manhattan",40.753612,-73.992417,109,1083624,1007860001,"Midtown-Midtown South"
"387","Make Music New York, Inc.","419 Lafayette Street","New York","NY","10003","(917) 779-9709","Music","Manhattan Council District #9","Manhattan Community Board #10","Manhattan",40.728789,-73.992344,57,1008773,1005440013,"West Village"
"388","Making Books Sing, Inc.","340 East 46th Street","New York","NY","10017","(212) 573-8791 x240","Theater","Manhattan Council District #4","Manhattan Community Board #6","Manhattan",40.751943,-73.969339,90,1038777,1013380035,"Turtle Bay-East Midtown"
"389","Mama Foundation for the Arts, Inc.","149 West 126th Street","New York","NY","10027","(212) 280-1045","Music","Manhattan Council District #9","Manhattan Community Board #10","Manhattan",40.809036,-73.946375,224,1057889,1019110112,"Central Harlem North-Polo Grounds"
"390","Manhattan Art Program, Inc.","800 6th avenue, suite 11C","New York","NY","10010","(212) 686-2202","Visual Arts","Manhattan Council District #1","Manhattan Community Board #1","Manhattan",40.745342,-73.990487,58,1088723,1008290001,"Hudson Yards-Chelsea-Flatiron-Union Square"
